"name","latitude","longitude","priority","description","booking","codeITA","codeSGP","codeTI","nameTI","alias"
"Albuzzano","45.172478","9.2618","0","TI,TN","","","urn:trainline:generic:loc:21088","830001863","albuzzano",""
"Milano Lambrate","45.48493","9.237351","1","TI,TN","-121726","","urn:trainline:generic:loc:8485","830001701","milano lambrate",""
"Novi Ligure","44.762383","8.787459","0","TI,TN","","","urn:trainline:generic:loc:19765","830004203","novi ligure",""
"Gallipoli via Salento","40.05216","17.99944","0","FSE","-118224","","urn:trainline:generic:loc:34908","830041136","gallipoli via salento",""
"Latina","41.53818","12.946289","0","TI","","","urn:trainline:generic:loc:19813","830008608","latina",""
"Cadorago","45.729427","9.04134","0","TI,TN","","","urn:trainline:generic:loc:21208","830025427","cadorago",""
"Assemini Carmine","39.28171","9.014037","0","TI","","","urn:trainline:generic:loc:20649","830012809","assemini carmine",""
"Balestrate","38.053356","13.007365","0","TI","-111134","","urn:trainline:generic:loc:20187","830012122","balestrate",""
"Salzburg Hbf","47.814873","13.045398","0","TI","","","urn:trainline:generic:loc:17458","810001114","salzburg hbf",""
"Taranto - Cimino","40.46587","17.298328","0","TI","","","urn:trainline:generic:loc:35045","830041347","taranto cimino",""
"Pontenure","45.001686","9.792141","0","TI","","","urn:trainline:generic:loc:19473","830005005","pontenure",""
"Castiglione","39.98247","18.348358","0","TI","","","urn:trainline:generic:loc:34865","830041286","castiglione",""
"Moregine","40.73831","14.484919","0","EAV","","","urn:trainline:generic:loc:66589","","",""
"Adelfia","41.006493","16.872055","0","FSE","","","urn:trainline:generic:loc:21720","830041024","adelfia",""
"Ternate-Varano Borghi","45.781837","8.700517","0","TI,TN","","","urn:trainline:generic:loc:20459","830001143","ternate-varano borghi",""
"Marcellina-Palombara","41.99964","12.791371","0","TI","","","urn:trainline:generic:loc:21507","830008507","marcellina-palombara",""
"Briona","45.538624","8.478799","0","TI","","","urn:trainline:generic:loc:20736","830000113","briona",""
"Caprarica di Lecce","40.26096","18.243387","0","FSE","","","urn:trainline:generic:loc:34852","830041217","caprarica",""
"Vinchiaturo","41.49387","14.597853","0","TI","","","urn:trainline:generic:loc:20431","830009457","vinchiaturo",""
"Torino Stura","45.12169","7.7135963","0","TI","","","urn:trainline:generic:loc:20425","830000228","torino stura",""
"Giulianova","42.75169","13.965702","0","TI","","","urn:trainline:generic:loc:20006","830007802","giulianova",""
"Stabio","45.849865","8.944441","0","TI,TN","","","urn:trainline:generic:loc:34791","850017519","stabio",""
"Modena Policlinico","44.637386","10.93832","0","TI","","","urn:trainline:generic:loc:23065","830090666","modena policlinico",""
"Verginese","44.739468","11.817313","0","TI","","","urn:trainline:generic:loc:34795","830005197","verginese",""
"San Valentino Torio","40.79756","14.600522","0","EAV","","","urn:trainline:generic:loc:66661","","",""
"Pozzuoli-Solfatara","40.827534","14.126135","0","TI","","","urn:trainline:generic:loc:19728","830009101","pozzuoli solfatara",""
"Diamante-Buonvicino","39.676342","15.82498","0","TI","","","urn:trainline:generic:loc:19570","830011731","diamante-buonvicino",""
"Collesalvetti","43.58657","10.470544","0","TI","","","urn:trainline:generic:loc:19359","830006018","collesalvetti",""
"Vevey","46.463055","6.843611","0","","","","urn:trainline:generic:loc:18194","850001200","vevey",""
"Avio","45.73333","10.954937","0","TI","","","urn:trainline:generic:loc:20170","830002050","avio",""
"Pianoro","44.38043","11.340812","0","TI","","","urn:trainline:generic:loc:19963","830005131","pianoro",""
"Montecorvino","40.61654","14.947296","0","TI","","","urn:trainline:generic:loc:19666","830009822","montecorvino",""
"Nibbia","45.48138","8.558058","0","TI","","","urn:trainline:generic:loc:20045","830000976","nibbia",""
"Guarda","44.61056","11.622133","0","TI","","","urn:trainline:generic:loc:22328","830027224","guarda",""
"Pm Teatino","42.41446","14.176205","0","","","","urn:trainline:generic:loc:66613","","",""
"Potenza Picena-Montelupone","43.360336","13.698057","0","TI","","","urn:trainline:generic:loc:20912","830007505","potenza picena-montelupone",""
"Mongrassano-Cervicati","39.538525","16.222506","0","TI","","","urn:trainline:generic:loc:19489","830011905","mongrassano-cervicati",""
"Corbezzi","43.993954","10.919698","0","TI","","","urn:trainline:generic:loc:19328","830005115","corbezzi",""
"Albenga","44.04729","8.221585","0","TI","","","urn:trainline:generic:loc:19437","830004516","albenga",""
"Palazzaccia","43.245583","12.401755","0","","","","urn:trainline:generic:loc:66406","830080608","",""
"Terremorte","37.824215","15.153481","0","FCE","","","urn:trainline:generic:loc:66686","","",""
"Racconigi","44.77121","7.685515","0","TI","","","urn:trainline:generic:loc:19973","830000602","racconigi",""
"Turi","40.914352","17.017357","0","FSE","","","urn:trainline:generic:loc:22239","830041027","turi",""
"Balanzano","43.079556","12.422161","0","TI","","","urn:trainline:generic:loc:66372","830080601","balanzano",""
"Barletta Lido","41.319885","16.298965","0","FNB","","","urn:trainline:generic:loc:66467","","",""
"Manfredonia Ovest","41.604225","15.883384","0","TI","","","urn:trainline:generic:loc:34802","830011057","manfredonia ovest",""
"Dolcè","45.60155","10.850837","0","TI","","","urn:trainline:generic:loc:19472","830002053","dolce",""
"Petrosino Strasatti","37.725506","12.509419","0","TI","","","urn:trainline:generic:loc:19497","830012109","petrosino-strasatti",""
"Riparbella","43.339455","10.582201","0","TI","","","urn:trainline:generic:loc:20770","830006750","riparbella",""
"Cavizzana - Bivio","46.371567","10.952171","0","TTE","","","urn:trainline:generic:loc:66785","","",""
"Triggianello","40.92682","17.170017","0","TI","","","urn:trainline:generic:loc:35070","830041367","triggianello",""
"Modena Piazza Manzoni","44.63443","10.931168","0","TI","","","urn:trainline:generic:loc:23066","830005188","modena piazza manzoni",""
"Montecarotto-Castelbellino","43.50013","13.148207","0","TI","","","urn:trainline:generic:loc:19662","830007203","montecarotto-castelbellino",""
"Castagnaro","45.119442","11.403888","0","TI","","","urn:trainline:generic:loc:19829","830002368","castagnaro",""
"Rosolina","45.07553","12.239668","0","TI","","","urn:trainline:generic:loc:19760","830005424","rosolina",""
"Rosolini","36.815945","14.952911","0","TI","","","urn:trainline:generic:loc:19638","830012422","rosolini",""
"Vittorio Veneto","45.989525","12.293662","0","TI","","","urn:trainline:generic:loc:20785","830002733","vittorio veneto",""
"Zoo - Edenlandia","40.820316","14.183457","0","EAV","","","urn:trainline:generic:loc:66712","","",""
"San Romano-Montopoli-Santa Croce","43.690556","10.7602215","0","TI","","","urn:trainline:generic:loc:20747","830006508","s. romano-montopoli-s. croce",""
"Sannazzaro","45.10535","8.905315","0","TI,TN","","","urn:trainline:generic:loc:21967","830000403","sannazzaro",""
"Mantova-Frassine","45.150524","10.831099","0","TI","-120965","","urn:trainline:generic:loc:19852","830002380","mantova frassine",""
"Savignano sul Rubicone","44.09526","12.404047","0","TI","","","urn:trainline:generic:loc:20760","830005068","savignano sul rubicone",""
"Miggiano - Montesano - Specchia","39.964424","18.32315","0","FSE","","","urn:trainline:generic:loc:21387","830041108","miggiano-montesano-specchia",""
"Nocera Inferiore Mercato","40.746025","14.649499","0","TI","","","urn:trainline:generic:loc:22004","830009709","nocera inferiore mercato",""
"Omegna-Crusinallo","45.8982","8.413952","0","TI","","","urn:trainline:generic:loc:19552","830000008","omegna-crusinallo",""
"Mungivacca","41.090225","16.900127","0","FSE","","","urn:trainline:generic:loc:22326","830041003","mungivacca",""
"Iselle di Trasquera","46.20692","8.207029","0","TI","","","urn:trainline:generic:loc:19936","830001000","iselle di trasquera",""
"Pescara Centrale","42.468666","14.2040205","1","TI","-124336","","urn:trainline:generic:loc:19583","830007810","pescara centrale","pescara"
"Pietragalla","40.753326","15.79249","0","TI,FAL","","","urn:trainline:generic:loc:19953","830011213","pietragalla",""
"Mozzate","45.67789","8.955147","0","TI,TN","","","urn:trainline:generic:loc:21683","830025224","mozzate",""
"Guardavalle","38.48014","16.578789","0","TI","","","urn:trainline:generic:loc:19935","830011843","guardavalle",""
"Motta San Damiano","45.178272","9.219942","0","TI,TN","","","urn:trainline:generic:loc:22495","830001862","motta s. damiano",""
"Varenna Esino","46.015053","9.286208","0","TI,TN","-131901","","urn:trainline:generic:loc:22026","830001411","varenna-esino",""
"Pescara Tribunale","42.449596","14.218985","0","TI","-124336","","urn:trainline:generic:loc:20691","830007019","pescara tribunale",""
"Busseto","44.974663","10.039002","0","TI","","","urn:trainline:generic:loc:19365","830001963","busseto",""
"Lascari","38.0116","13.928325","0","TI","","","urn:trainline:generic:loc:19906","830012018","lascari",""
"Inverigo","45.740314","9.224473","0","TI,TN","","","urn:trainline:generic:loc:21602","830025035","inverigo",""
"Cozze","41.021667","17.159166","0","TI","","","urn:trainline:generic:loc:21192","830041390","cozze",""
"Piana di Monte Verna","41.171738","14.32912","0","TI,EAV","","","urn:trainline:generic:loc:21628","830052011","piana di monte verna",""
"Sant'Olcese Chiesa","44.490932","8.971716","0","FGC","","","urn:trainline:generic:loc:66724","","",""
"Quadrivia Tortorella","41.47895","15.684379","0","","","","urn:trainline:generic:loc:66636","","",""
"Arquata Scrivia","44.69234","8.885181","0","TI,TN","","","urn:trainline:generic:loc:19424","830004207","arquata scrivia",""
"Marino del Tronto-Folignano","42.84433","13.632998","0","TI","","","urn:trainline:generic:loc:19941","830007556","marino del tronto-folignano",""
"Pederobba-Cavaso-Possagno","45.87738","11.965141","0","TI","","","urn:trainline:generic:loc:21276","830002567","pederobba-cavaso-possagno",""
"Cesenatico","44.200497","12.391262","0","TI","-115252","","urn:trainline:generic:loc:20211","830005815","cesenatico",""
"Savona","44.306896","8.470201","1","TI","","","urn:trainline:generic:loc:20326","830004801","savona",""
"Bartolo Longo","40.847267","14.336627","0","EAV","","","urn:trainline:generic:loc:66472","","",""
"Corniglia","44.119934","9.711163","0","TI","","","urn:trainline:generic:loc:19332","830004734","corniglia",""
"Morrovalle-Monte San Giusto","43.279213","13.582808","0","TI","","","urn:trainline:generic:loc:19708","830007309","morrovalle-monte s. giusto",""
"Bova Marina","37.930473","15.923899","0","TI","","","urn:trainline:generic:loc:19156","830011860","bova marina",""
"Bari Scalo","41.114796","16.854136","0","FAL","-111255","","urn:trainline:generic:loc:66464","","",""
"St Laurent Du Var","43.6625","7.194167","0","","","","urn:trainline:generic:loc:4166","870075634","saint laurent du var",""
"Marinella","40.999123","9.553619","0","TI","","","urn:trainline:generic:loc:19939","830012854","marinella",""
"Tusa","38.00787","14.256772","0","TI","","","urn:trainline:generic:loc:20960","830012022","tusa",""
"Bari - Ceglie - Carbonara","41.068645","16.87125","0","FSE","-111255","","urn:trainline:generic:loc:21224","830041022","bari ceglie-carbonara",""
"Torino (tutte le stazioni)","45.070072","7.682815","1","TI,ITA","","TOP","urn:trainline:generic:loc:8565","830000996","torino ( tutte le stazioni )",""
"Grotte","37.409843","13.702706","0","TI","","","urn:trainline:generic:loc:20149","830012372","grotte",""
"Ozzano Taro","44.712288","10.141031","0","TI","","","urn:trainline:generic:loc:19673","830006152","ozzano taro",""
"Bracciano","42.10369","12.173063","0","TI","","","urn:trainline:generic:loc:19162","830008315","bracciano",""
"Sant'Alessio Siculo Forza d'Agrò","37.924007","15.347348","0","TI","","","urn:trainline:generic:loc:20306","830012315","s. alessio siculo-forza d'agro'",""
"Passo Zingaro","37.74358","14.833109","0","FCE","","","urn:trainline:generic:loc:66601","","",""
"Populonia","42.99644","10.540672","0","TI","","","urn:trainline:generic:loc:19903","830006773","populonia",""
"Cupramarittima","43.02338","13.860869","0","TI","","","urn:trainline:generic:loc:20134","830007511","cupramarittima",""
"Montemaggiore","37.85899","13.693053","0","TI","","","urn:trainline:generic:loc:19671","830012203","montemaggiore belsito",""
"Settimo San Pietro","39.289577","9.176847","0","ARST","","","urn:trainline:generic:loc:22581","","",""
"Locarno","46.1725","8.801667","0","","","","urn:trainline:generic:loc:18295","850005400","locarno",""
"Molinella","44.62743","11.668613","0","TI","","","urn:trainline:generic:loc:22472","830027226","molinella",""
"Domodossola","46.11542","8.296402","1","TI,TN","","","urn:trainline:generic:loc:19504","830001003","domodossola",""
"Cercola","40.85629","14.35546","0","EAV","","","urn:trainline:generic:loc:66506","","",""
"Rapallo","44.35126","9.231598","1","TI","-126102","","urn:trainline:generic:loc:20717","830004720","rapallo",""
"Fontane Bianche","36.969097","15.211395","0","TI","900039191","","urn:trainline:generic:loc:22241","830012054","fontane bianche",""
"San Cassiano","44.14375","11.687522","0","TI","","","urn:trainline:generic:loc:20601","830006612","s. cassiano",""
"Furci","37.961716","15.380032","0","TI","","","urn:trainline:generic:loc:19510","830012313","furci",""
"Spinazzola Città","40.96869","16.092974","0","TI","","","urn:trainline:generic:loc:20767","830011311","spinazzola citta'",""
"Bari Quintino Sella","41.1181","16.862082","0","FNB","-111255","","urn:trainline:generic:loc:66461","830055002","bari quintino sella","bari q. sella"
"Candiolo","44.961105","7.599018","0","TI","","","urn:trainline:generic:loc:19199","830000512","candiolo",""
"Palermo Vespri","38.102665","13.361632","0","TI","","","urn:trainline:generic:loc:20573","830012135","palermo vespri","vespri"
"Leopardi","40.76616","14.417769","0","EAV","","","urn:trainline:generic:loc:66556","","","napoli leopardi"
"Pignataro Maggiore","41.17383","14.160614","0","TI","","","urn:trainline:generic:loc:19958","830009207","pignataro maggiore",""
"Ancona Torrette","43.61012","13.45572","0","TI","","","urn:trainline:generic:loc:20597","830007015","ancona torrette",""
"Capaci","38.177074","13.23856","0","TI","","","urn:trainline:generic:loc:19461","830012128","capaci",""
"Garbagna","45.385605","8.666325","0","TI,TN","","","urn:trainline:generic:loc:19469","830000030","garbagna",""
"Genova Brignole","44.406693","8.946916","2","TI","","GB_","urn:trainline:generic:loc:8442","830004702","genova brignole",""
"Treviso Centrale","45.65967","12.245096","1","TI","-131327","TVC","urn:trainline:generic:loc:20610","830002712","treviso centrale",""
"Fiorentina di Piombino","42.96932","10.542351","0","TI","","","urn:trainline:generic:loc:22408","830006774","fiorentina di piombino",""
"Bragno","44.368378","8.29589","0","TI","","","urn:trainline:generic:loc:20434","830004803","bragno",""
"San Giovanni","40.762543","8.499326","0","TI","","","urn:trainline:generic:loc:22173","","",""
"Moiana","45.787064","9.255656","0","TI,TN","","","urn:trainline:generic:loc:22415","830001456","moiana",""
"Oniferi","40.318127","9.170227","0","ARST","","","urn:trainline:generic:loc:22466","","",""
"Bagni di Lucca","44.003433","10.5516815","0","TI","","","urn:trainline:generic:loc:20167","830006308","bagni di lucca",""
"Sezze Romano","41.495567","13.038402","0","TI","","","urn:trainline:generic:loc:20742","830008609","sezze romano",""
"Montechiaro-Denice","44.60107","8.35202","0","TI","","","urn:trainline:generic:loc:19665","830000872","montechiaro denice",""
"Celano-Ovindoli","42.077","13.543388","0","TI","","","urn:trainline:generic:loc:19289","830008528","celano-ovindoli",""
"Mezzocorona","46.207233","11.128421","0","TI","","","urn:trainline:generic:loc:19612","830002035","mezzocorona",""
"Grumo Appula","41.00878","16.705631","0","TI","","","urn:trainline:generic:loc:20151","830011502","grumo appula",""
"Arpino","41.647667","13.599927","0","TI","","","urn:trainline:generic:loc:19177","830008859","arpino",""
"Castelvecchio Pascoli","44.090096","10.4551325","0","TI","","","urn:trainline:generic:loc:19317","830006302","castelvecchio pascoli",""
"Garbagnate Parco delle Groane","45.57116","9.091059","0","TI,TN","","","urn:trainline:generic:loc:22065","830025115","garbagnate parco delle groane","garbagnate parco groane"
"Pieve Vergonte","46.009804","8.276345","0","TI","","","urn:trainline:generic:loc:20849","830000004","pieve vergonte",""
"Vidalengo","45.51782","9.639751","0","TI,TN","","","urn:trainline:generic:loc:22020","830001709","vidalengo",""
"Marano Vicentino","45.707546","11.420564","0","TI","","","urn:trainline:generic:loc:19752","830002142","marano vicentino",""
"Wien Westbf","48.198658","16.338352","0","TI","","","urn:trainline:generic:loc:17561","810001001","Wien Westbahnhof",""
"Brisighella","44.220562","11.769785","0","TI","","","urn:trainline:generic:loc:20754","830006614","brisighella",""
"Lentini","37.301003","14.997402","0","TI","","","urn:trainline:generic:loc:19656","830012341","lentini",""
"Cocquio-Trevisago","45.860126","8.690046","0","TI,TN","","","urn:trainline:generic:loc:21124","830025365","cocquio trevisago",""
"Marina di San Lorenzo","37.920048","15.826578","0","TI","","","urn:trainline:generic:loc:19938","830011862","marina di s. lorenzo",""
"Aversa","40.97333","14.218502","0","TI,EAV","","AVR","urn:trainline:generic:loc:20178","830009006","aversa",""
"Luzern","47.050198","8.310482","0","TI","","","urn:trainline:generic:loc:6353","850005000","luzern",""
"Monte Faito","40.66432","14.491766","0","EAV","","","urn:trainline:generic:loc:66588","","",""
"Paternò - Parco del Sole","37.574665","14.898672","0","FCE","","","urn:trainline:generic:loc:66812","","",""
"Acquedolci-San Fratello","38.058327","14.587666","0","TI","","","urn:trainline:generic:loc:22067","830012026","acquedolci-s.fratello",""
"Stimigliano","42.289948","12.56846","0","TI","","","urn:trainline:generic:loc:20316","830008212","stimigliano",""
"San Marco Roggiano","39.605232","16.208675","0","TI","","","urn:trainline:generic:loc:20263","830011904","s. marco-roggiano",""
"Bagnolo Soave","44.771046","10.680419","0","TI","","","urn:trainline:generic:loc:23071","830098135","bagnolo soave",""
"Pino","44.468662","8.959568","0","FGC","","","urn:trainline:generic:loc:66722","","",""
"Monselice","45.24621","11.747787","0","TI","","","urn:trainline:generic:loc:19617","830005703","monselice",""
"Vercelli","45.33006","8.416443","1","TI,TN,SNCF","","","urn:trainline:generic:loc:10463","830000245","vercelli",""
"Nunziata di Mascali","37.759262","15.172974","0","FCE","","","urn:trainline:generic:loc:66810","","",""
"Novara","45.451145","8.624966","1","TI,TN,SNCF","","","urn:trainline:generic:loc:10462","830000248","novara",""
"Benevento Porta Rufina","41.123573","14.784282","0","TI","","","urn:trainline:generic:loc:22413","830009509","benevento porta rufina",""
"Compre-San Vincenzo","41.75673","13.607805","0","TI","","","urn:trainline:generic:loc:19189","830008865","compre s. vincenzo",""
"Marlengo/Marling","46.664577","11.138579","0","TI","","","urn:trainline:generic:loc:20666","830002214","marlengo marling",""
"Alfa Lancia 2","40.924053","14.40095","0","EAV","","","urn:trainline:generic:loc:66445","","",""
"Casalecchio di Reno","44.47427","11.276074","0","TI","","","urn:trainline:generic:loc:20144","830005101","casalecchio di reno",""
"Montecorona","43.287647","12.359697","0","","","","urn:trainline:generic:loc:66403","830080606","",""
"Santa Mama","43.628036","11.853874","0","TI","","","urn:trainline:generic:loc:23084","830006079","SANTA MAMA",""
"San Giovanni in Croce","45.075066","10.377614","0","TI,TN","","","urn:trainline:generic:loc:22174","830001849","s. giovanni in croce",""
"Quercianella","43.45493","10.372725","0","TI","","","urn:trainline:generic:loc:19847","830006728","quercianella-sonnino",""
"Prato Porta al Serraglio","43.88452","11.098365","0","TI","","","urn:trainline:generic:loc:22320","830006422","prato porta al serraglio",""
"Monte San Biagio","41.345932","13.347036","0","TI","","","urn:trainline:generic:loc:19536","830008605","monte san biagio - terracina mare",""
"Ponticelli","40.850914","14.333343","0","EAV","","","urn:trainline:generic:loc:66622","","",""
"Rivalta Scrivia","44.85411","8.810087","0","TI","","","urn:trainline:generic:loc:21303","830004331","rivalta scrivia",""
"Assemini Santa Lucia","39.291008","8.989356","0","TI","","","urn:trainline:generic:loc:22242","830012808","assemini s.lucia",""
"Alfa Lancia 4","40.930264","14.400084","0","EAV","","","urn:trainline:generic:loc:66446","","",""
"Ornavasso","45.97026","8.415913","0","TI","","","urn:trainline:generic:loc:19741","830000006","ornavasso",""
"Mignanego","44.538956","8.930041","0","TI","","","urn:trainline:generic:loc:20858","830004212","mignanego",""
"Potenza Università","40.64323","15.811778","0","TI","","","urn:trainline:generic:loc:20793","830011001","potenza universita'",""
"Gioia del Colle - Ospedale","40.793858","16.925032","0","TI","","","urn:trainline:generic:loc:34303","830041254","gioia del colle ospedale",""
"Erba","45.8132","9.230271","0","TI,TN","","","urn:trainline:generic:loc:21694","830025039","erba",""
"Genova Sampierdarena","44.413525","8.886773","1","TI","","","urn:trainline:generic:loc:20088","830004220","genova sampierdarena",""
"Pontelambro-Castelmarte","45.8292","9.225767","0","TI,TN","","","urn:trainline:generic:loc:21562","830025042","ponte lambro-castelmarte",""
"Cibali","37.520054","15.066425","0","FCE","","","urn:trainline:generic:loc:66508","","",""
"Bari Marconi","41.117165","16.88734","0","TI","","","urn:trainline:generic:loc:19558","830011122","marconi",""
"Venezia Mestre","45.482117","12.232063","2","TI,ITA","-132007","VEM","urn:trainline:generic:loc:8575","830002589","venezia mestre",""
"Cosenza Campanella","39.303104","16.261564","0","TI","","","urn:trainline:generic:loc:66424","830054253","cosenza campanella",""
"Ponte Ronca","44.50223","11.191733","0","TI","","","urn:trainline:generic:loc:22262","830090660","ponte ronca",""
"Corato Liceo Classico","41.14635","16.404902","0","FNB","","","urn:trainline:generic:loc:66516","","",""
"Sangemini","42.62432","12.54897","0","TI","","","urn:trainline:generic:loc:21985","830035109","sangemini",""
"Val d'Ala","41.9419","12.516708","0","TI","","","urn:trainline:generic:loc:20665","830008014","val d'ala",""
"Vasto-San Salvo","42.07993","14.739532","0","TI","","","urn:trainline:generic:loc:20511","830007827","vasto-s. salvo",""
"Favazzina","38.258892","15.756474","0","TI","","","urn:trainline:generic:loc:19866","830011771","favazzina",""
"Giurdignano (BUS)","40.120125","18.435102","0","FSE","","","urn:trainline:generic:loc:34914","830041452","giurdignano (bus)",""
"Marzocca","43.677135","13.288348","0","TI","","","urn:trainline:generic:loc:19945","830007109","marzocca",""
"Mancasale","44.72484","10.653107","0","TI","","","urn:trainline:generic:loc:23069","830080317","mancasale",""
"San Martino in Campo-Torgiano","43.038067","12.403433","0","TI","","","urn:trainline:generic:loc:21905","830035160","s. martino in campo-torgiano",""
"Alfedena-Scontrone","41.738205","14.044715","0","TI","","","urn:trainline:generic:loc:19432","830008908","alfedena-scontrone",""
"Castellammare di Stabia","40.69528","14.483308","0","TI,EAV","","","urn:trainline:generic:loc:19405","830009756","castellammare di stabia",""
"Avise","45.7063","7.133865","0","TI","","","urn:trainline:generic:loc:20171","830000133","avise",""
"Bandito","44.72203","7.8193526","0","TI","","","urn:trainline:generic:loc:20908","830000732","bandito",""
"Ruvo ITC","41.11128","16.491854","0","FNB","","","urn:trainline:generic:loc:66648","","",""
"Lesa","45.825733","8.558777","0","TI","","","urn:trainline:generic:loc:19659","830001018","lesa",""
"Fontanafredda","45.967545","12.575238","0","TI","","","urn:trainline:generic:loc:20079","830002702","fontanafredda",""
"Fuorigrotta","40.82793","14.2017975","0","EAV","","","urn:trainline:generic:loc:66535","","",""
"San Marco d'Alunzio-Torrenova","38.094147","14.676091","0","TI","","","urn:trainline:generic:loc:20257","830012028","s. marco d'alunzio-torrenova",""
"Dittaino","37.564594","14.462482","0","TI","","","urn:trainline:generic:loc:20860","830012240","dittaino",""
"Napoli Montesanto","40.847733","14.244128","0","TI,EAV","-122902","","urn:trainline:generic:loc:20714","830009107","napoli montesanto",""
"Mira-Mirano","45.46294","12.118843","0","TI","","","urn:trainline:generic:loc:19786","830002588","mira-mirano",""
"Ilci Pian dei Mori","42.817993","12.403792","0","","","","urn:trainline:generic:loc:66399","830090367","ilci pian dei mori",""
"Lamar","46.125523","11.107367","0","TTE","","","urn:trainline:generic:loc:66552","","",""
"Bronte Casello 54","37.781956","14.836824","0","FCE","","","urn:trainline:generic:loc:66490","","",""
"Camposano","40.952213","14.531429","0","EAV","","","urn:trainline:generic:loc:66494","","",""
"Sant'Ellero","43.74222","11.469759","0","TI","","","urn:trainline:generic:loc:20697","830006905","s. ellero",""
"Vicoforte-San Michele","44.37403","7.8947663","0","TI","","","urn:trainline:generic:loc:20814","830000953","vicoforte-s. michele",""
"Canosa di Puglia","41.218533","16.054062","0","TI","","","urn:trainline:generic:loc:19251","830011402","canosa di puglia",""
"Salerno Torrione","40.670425","14.79022","0","TI","-127126","","urn:trainline:generic:loc:23109","830009835","salerno torrione",""
"Poggio Renatico","44.76747","11.484108","0","TI","","","urn:trainline:generic:loc:19704","830005720","poggio renatico",""
"Zinasco Nuovo","45.124516","8.999762","0","TI,TN","","","urn:trainline:generic:loc:22087","830000401","zinasco nuovo",""
"Quarto Centro","40.88016","14.144995","0","EAV","","","urn:trainline:generic:loc:66638","","",""
"Quattro Venti","41.878597","12.458787","0","TI","","","urn:trainline:generic:loc:20644","830008005","quattro venti",""
"Massa Martana","42.77729","12.525219","0","TI","","","urn:trainline:generic:loc:22430","830035119","massa martana",""
"Rosà","45.72051","11.775673","0","TI","","","urn:trainline:generic:loc:19725","830002521","rosa",""
"Grumo Appula (FAL)","41.00825","16.70589","0","FAL","","","urn:trainline:generic:loc:66544","","",""
"Santa Maria Capua Vetere","41.073498","14.254096","0","TI,EAV","","","urn:trainline:generic:loc:20303","830009209","s. maria capua vetere","s. maria c.v."
"Villamassargia-Domusnovas","39.294704","8.642433","0","TI","","","urn:trainline:generic:loc:20577","830012952","villamassargia-domusnovas",""
"Nera Montoro","42.49661","12.474879","0","TI","","","urn:trainline:generic:loc:20043","830007229","nera montoro",""
"Niusci","44.509388","8.989836","0","FGC","","","urn:trainline:generic:loc:66721","","",""
"Abbadia Lariana","45.90051","9.334459","0","TI,TN","","","urn:trainline:generic:loc:21205","830001416","abbadia lariana",""
"Limena","45.47505","11.846039","0","","","","urn:trainline:generic:loc:66560","","",""
"Cocumola","40.067055","18.431904","0","TI","","","urn:trainline:generic:loc:34879","830041234","cocumola",""
"Lei","40.299957","8.921905","0","ARST","","","urn:trainline:generic:loc:66555","","",""
"La Giustiniana (ATAC)","42.0031","12.488118","0","ATAC","","","urn:trainline:generic:loc:66760","","",""
"Codigoro","44.836483","12.10189","0","TI","","","urn:trainline:generic:loc:21125","830033011","codigoro",""
"San Rocco Mantovano","44.997055","11.017484","0","TI","","","urn:trainline:generic:loc:22380","830032315","s. rocco mantovano",""
"Cesate","45.590866","9.0664425","0","TI,TN","","","urn:trainline:generic:loc:21808","830025754","cesate",""
"Cisterna di Latina","41.586525","12.8275795","0","TI","","","urn:trainline:generic:loc:19234","830008603","cisterna di latina",""
"Cappuccio","44.44286","8.94316","0","FGC","","","urn:trainline:generic:loc:66716","","",""
"Taio - Via Roma","46.313915","11.070562","0","TTE","","","urn:trainline:generic:loc:66797","","",""
"Campobello-Ravanusa","37.265747","13.946316","0","TI","","","urn:trainline:generic:loc:19395","830012385","campobello-ravanusa",""
"Rigola Stadio","45.118477","7.65018","0","TI","","","urn:trainline:generic:loc:22270","830000084","rigola-stadio",""
"Canetra","42.3916","13.029179","0","TI","","","urn:trainline:generic:loc:19248","830007429","canetra",""
"Napoli Mergellina","40.831524","14.218716","1","TI","-122902","","urn:trainline:generic:loc:20867","830009105","napoli mergellina",""
"Bitetto Palo del Colle","41.045773","16.743486","0","TI","","","urn:trainline:generic:loc:21026","830011501","bitetto-palo del colle",""
"Macerata Fontescodella","43.292583","13.440806","0","TI","","","urn:trainline:generic:loc:22090","830007313","macerata fontescodella",""
"Contursi Terme","40.63007","15.235671","0","TI","","","urn:trainline:generic:loc:21144","830009826","contursi terme",""
"Casalmaggiore","44.993076","10.425084","0","TI,TN","","","urn:trainline:generic:loc:21776","830001850","casalmaggiore",""
"Palermo Palazzo Reale-Orleans","38.10892","13.3540745","0","TI","","","urn:trainline:generic:loc:20947","830012130","palermo palazzo reale-orleans","palazzo reale-orleans"
"Viareggio","43.873924","10.252829","0","TI","-132191","","urn:trainline:generic:loc:20584","830006040","viareggio",""
"Prata Camportaccio","46.307827","9.397797","0","TI,TN","","","urn:trainline:generic:loc:21526","830001418","prata camportaccio",""
"Picerno","40.64017","15.641405","0","TI,ITA","","PIC","urn:trainline:generic:loc:20145","830009833","picerno",""
"Malborghetto","46.504","13.442109","0","TI","","","urn:trainline:generic:loc:19679","830003007","malborghetto",""
"Gioia Tauro","38.423386","15.897303","0","TI","","","urn:trainline:generic:loc:20092","830011766","gioia tauro",""
"Isola delle Femmine","38.194725","13.250268","0","TI","","","urn:trainline:generic:loc:19646","830012129","isola delle femmine",""
"Ortelle","40.03467","18.392776","0","TI","","","urn:trainline:generic:loc:34988","830041309","ortelle",""
"Anfiteatro","41.092373","14.249269","0","TI,EAV","","","urn:trainline:generic:loc:21017","830052006","anfiteatro",""
"Forenza","40.866844","15.725374","0","TI","","","urn:trainline:generic:loc:19716","830011210","forenza",""
"Napoli Piazza Garibaldi","40.852448","14.272099","0","TI,EAV","-122902","","urn:trainline:generic:loc:21704","830009109","napoli piazza garibaldi","napoli garibaldi"
"Trinitapoli-San Ferdinando di Puglia","41.349632","16.090816","0","TI","","","urn:trainline:generic:loc:22339","830011106","trinitapoli-s. ferdinando di puglia",""
"Capurso - Zona 167","41.040504","16.9268","0","TI","","","urn:trainline:generic:loc:34854","830041220","capurso zona 167",""
"Ponte Nelle Alpi-Polpet","46.18237","12.277863","0","TI","","","urn:trainline:generic:loc:21491","830002558","ponte nelle alpi-polpet",""
"Vignate","45.49418","9.375776","0","TI,TN","","","urn:trainline:generic:loc:22094","830001704","vignate",""
"Napoli Capodichino Aeroporto","40.882504","14.285211","0","TI","","","urn:trainline:generic:loc:33298","830086801","napoli capodichino aeroporto",""
"Cutro","39.025948","16.96379","0","TI","","","urn:trainline:generic:loc:20130","830011826","cutro",""
"Taranto - Viale UNICEF","40.462116","17.281387","0","TI","","","urn:trainline:generic:loc:35058","830041358","taranto viale unicef 24",""
"Musiano-Pian di Macina","44.400932","11.34399","0","TI","","","urn:trainline:generic:loc:20652","830005139","musiano-pian di macina",""
"Roma Ostiense","41.872364","12.484441","1","TI,ITA","-126693","","urn:trainline:generic:loc:8545","830008406","roma ostiense",""
"Lanciano Centro","42.218727","14.391388","0","","","","urn:trainline:generic:loc:66553","","",""
"Melpignano (BUS)","40.157787","18.293653","0","FSE","","","urn:trainline:generic:loc:34959","830041402","melpignano (bus)",""
"Caronno Pertusella","45.598198","9.058163","0","TI,TN","","","urn:trainline:generic:loc:21814","830025116","caronno pertusella",""
"Montepaone-Montauro","38.728542","16.541891","0","TI","","","urn:trainline:generic:loc:19477","830011836","montepaone-montauro",""
"Termini Imerese","37.979694","13.703984","0","TI","","","urn:trainline:generic:loc:20789","830012014","termini imerese",""
"Civitella Roveto","41.91644","13.424876","0","TI","","","urn:trainline:generic:loc:20746","830008852","civitella roveto",""
"Codisotto","44.976566","10.725849","0","TI","","","urn:trainline:generic:loc:23052","830028327","codisotto",""
"Livorno Ferraris","45.28334","8.073614","0","TI","","","urn:trainline:generic:loc:19458","830000237","livorno ferraris",""
"Villafranca Tirrena","38.233624","15.429442","0","TI","","","urn:trainline:generic:loc:22180","830012050","villafranca tirrena-saponara",""
"Guagnano","40.398907","17.944353","0","FSE","","","urn:trainline:generic:loc:22438","830041040","guagnano",""
"Brunico/Bruneck","46.79407","11.929414","0","TI","","","urn:trainline:generic:loc:18826","830002107","brunico bruneck",""
"Potenza Inferiore","40.63012","15.806626","0","FAL","","","urn:trainline:generic:loc:66626","","",""
"San Bernardino di Novellara","44.868587","10.679239","0","TI","","","urn:trainline:generic:loc:22034","830029205","s. bernardino di novellara",""
"Desenzano del Garda-Sirmione","45.46259","10.536367","1","TI,TN,ITA","-116777","DSG","urn:trainline:generic:loc:18830","830002084","desenzano del garda-sirmione","desenzano del garda"
"Madonna della Scala","40.795055","17.056934","0","TI","","","urn:trainline:generic:loc:34934","830041462","madonna della scala",""
"Alice Belcolle","44.72265","8.440075","0","TI","","","urn:trainline:generic:loc:19168","830000809","alice belcolle",""
"Muenchen Ost","48.128643","11.603474","0","TI","","","urn:trainline:generic:loc:7683","800020234","Muenchen Ost",""
"Carugo-Giussano","45.705765","9.198859","0","TI,TN","","","urn:trainline:generic:loc:21775","830025033","carugo-giussano",""
"Castellamonte","45.384773","7.7143","0","TI","","","urn:trainline:generic:loc:22293","830082331","castellamonte",""
"Villanova d'Ardenghi","45.15694","9.037208","0","TI,TN","","","urn:trainline:generic:loc:22537","830000278","villanova d'ardenghi",""
"Ponte Schiavo","38.080383","15.494075","0","TI","","","urn:trainline:generic:loc:20529","830012060","ponte schiavo",""
"Russi","44.379005","12.031737","0","TI","","","urn:trainline:generic:loc:20401","830005903","russi",""
"Taggia Arma","43.84386","7.853218","0","TI","","","urn:trainline:generic:loc:21851","830004506","taggia arma",""
"Benevento","41.141747","14.77012","1","TI,ITA,EAV","","BEN","urn:trainline:generic:loc:19421","830009311","benevento",""
"Fabro-Ficulle","42.87487","12.0414915","0","TI","","","urn:trainline:generic:loc:19988","830008201","fabro-ficulle",""
"Zoagli","44.335335","9.269145","0","TI","","","urn:trainline:generic:loc:20523","830004721","zoagli",""
"Casello 8","45.356674","12.091245","0","TI","","","urn:trainline:generic:loc:21778","830027526","casello 8",""
"Acqua Acetosa","41.794052","12.616687","0","TI","","","urn:trainline:generic:loc:19256","830008715","acqua acetosa",""
"Messina Centrale","38.18483","15.561139","1","TI","","","urn:trainline:generic:loc:19880","830012301","messina centrale",""
"Lavis FTM","46.1385","11.108923","0","TTE","","","urn:trainline:generic:loc:66554","","","lavis (fc)"
"Ringsheim","48.24861","7.773056","0","","","","urn:trainline:generic:loc:13237","800014325","ringsheim",""
"Pavia Porta Garibaldi","45.18404","9.167238","0","TI,TN","","","urn:trainline:generic:loc:21273","830001861","pavia porta garibaldi",""
"Falciano-Mondragone-Carinola","41.12352","13.971819","0","TI","","","urn:trainline:generic:loc:20864","830009001","falciano-mondragone-carinola",""
"Tora-Presenzano","41.358807","14.044612","0","TI","","","urn:trainline:generic:loc:20452","830009202","tora-presenzano",""
"Savignano Greci","41.230698","15.167422","0","TI","","","urn:trainline:generic:loc:20979","830009318","savignano-greci",""
"Nusco","40.872356","15.095435","0","TI","","","urn:trainline:generic:loc:19550","830009614","nusco",""
"Patti-San Piero Patti","38.146923","14.975316","0","TI","","","urn:trainline:generic:loc:19481","830012036","patti-s. piero patti",""
"Strongoli","39.22798","17.108332","0","TI","","","urn:trainline:generic:loc:20323","830011822","strongoli",""
"Caravaggio","45.49116","9.637734","0","TI,TN","","","urn:trainline:generic:loc:21831","830001602","caravaggio",""
"Le Bosquet","43.5525","6.981389","0","","","","urn:trainline:generic:loc:10550","","",""
"Portichetto-Luisago","45.759285","9.050334","0","TI,TN","","","urn:trainline:generic:loc:21324","830025429","portichetto-luisago",""
"Locorotondo - Lame d'Olimpia","40.7854","17.364353","0","TI","","","urn:trainline:generic:loc:34932","830041268","locorotondo lame d'olimpia",""
"Abano Terme","45.355328","11.81144","0","TI","-109810","","urn:trainline:generic:loc:21204","830005700","abano",""
"Grosseto","42.767326","11.106476","1","TI","","","urn:trainline:generic:loc:20850","830006039","grosseto",""
"Colle Mattia","41.83273","12.728395","0","TI","","","urn:trainline:generic:loc:19219","830008651","colle mattia",""
"Mesagne - Cittadella della Ricerca","40.586235","17.850021","0","TI","","","urn:trainline:generic:loc:34961","830041290","mesagne cittadella della ricerca",""
"Castenaso Stellina","44.50351","11.458052","0","TI","","","urn:trainline:generic:loc:21141","830027223","castenaso stellina",""
"Falerna","38.970863","16.149775","0","TI","","","urn:trainline:generic:loc:19925","830011747","falerna",""
"Varazze","44.356632","8.5663185","0","TI","","","urn:trainline:generic:loc:20437","830004531","varazze",""
"Massafra","40.583054","17.107986","0","TI","","","urn:trainline:generic:loc:19948","830011510","massafra",""
"Migliarino","44.769238","11.938571","0","TI","","","urn:trainline:generic:loc:21568","830033008","migliarino",""
"Badolato","38.572235","16.567705","0","TI","","","urn:trainline:generic:loc:20734","830011841","badolato",""
"Villa Opicina","45.694706","13.7916","0","TI","","","urn:trainline:generic:loc:22084","830003468","villa opicina",""
"Passopisciaro-Moio","37.872524","15.036695","0","FCE","","","urn:trainline:generic:loc:66602","","",""
"Cernusco-Merate","45.695076","9.396814","0","TI,TN","","","urn:trainline:generic:loc:21815","830001513","cernusco-merate",""
"Solfagnano-Parlesca","43.22157","12.409784","0","TI","","","urn:trainline:generic:loc:22163","830035190","solfagnano-parlesca",""
"Empoli","43.715733","10.949323","0","TI","","","urn:trainline:generic:loc:19975","830006510","empoli",""
"Castelguelfo","44.83663","10.176507","0","TI","","","urn:trainline:generic:loc:20945","830005012","castelguelfo",""
"Macon Loche TGV","46.2831","4.7779","0","TI","","","urn:trainline:generic:loc:4756","870072570","macon loche tgv",""
"Lamezia Terme Aeroporto","38.90991","16.246433","0","TI","","","urn:trainline:generic:loc:28987","830017014","lamezia terme aeroporto",""
"Stradella","45.079453","9.300856","0","TI,TN","","","urn:trainline:generic:loc:20318","830001945","stradella",""
"Vanzago-Pogliano","45.52529","8.9956455","0","TI,TN","","","urn:trainline:generic:loc:20427","830001036","vanzago-pogliano",""
"Cles","46.3644","11.039072","0","TI","","","urn:trainline:generic:loc:21151","830015005","cles",""
"Rosarno","38.488567","15.970184","0","TI,ITA","","RUT","urn:trainline:generic:loc:19609","830011765","rosarno",""
"Locorotondo","40.756054","17.321054","0","FSE","-120279","","urn:trainline:generic:loc:21540","830041013","locorotondo",""
"Bosco (CS)","39.28442","16.294094","0","TI","","","urn:trainline:generic:loc:22006","830054250","bosco (cs)",""
"Pregnana Milanese","45.510063","9.002837","0","TI,TN","","","urn:trainline:generic:loc:22243","830001058","pregnana milanese",""
"Marcaria","45.12446","10.533705","0","TI,TN","","","urn:trainline:generic:loc:21637","830001921","marcaria",""
"Ozieri-Chilivani","40.6095","8.933753","0","TI","","","urn:trainline:generic:loc:19672","830012862","ozieri-chilivani",""
"Venegono Inferiore","45.736687","8.895073","0","TI,TN","","","urn:trainline:generic:loc:22081","830025229","venegono inferiore",""
"Mouans-Sartoux","43.620277","6.974167","0","","","","urn:trainline:generic:loc:4795","870040132","mouans sartoux",""
"Cesano Maderno-Groane","45.630287","9.126491","0","TI,TN","","","urn:trainline:generic:loc:23094","830001798","cesano maderno groane",""
"Mantova","45.15873","10.7832575","1","TI,TN,ITA","-120965","MAV","urn:trainline:generic:loc:19851","830002336","mantova",""
"Casaletto Vaprio","45.408665","9.631762","0","TI,TN","","","urn:trainline:generic:loc:21766","830001604","casaletto vaprio",""
"Meana","45.124645","7.059812","0","TI","","","urn:trainline:generic:loc:20020","830000207","meana",""
"Monte San Savino","43.33208","11.731687","0","TI","","","urn:trainline:generic:loc:22463","830034005","MONTE S.SAVINO",""
"Segrate","45.48071","9.298594","0","TI,TN","","","urn:trainline:generic:loc:22188","830001715","segrate",""
"Firenze (tutte le stazioni)","43.77101","11.254013","1","TI,ITA","-117543","SMN","urn:trainline:generic:loc:8433","830006998","firenze ( tutte le stazioni )",""
"Gravina in Puglia","40.82522","16.41899","0","TI,FAL","","","urn:trainline:generic:loc:20101","830011306","gravina in puglia",""
"Milano Porta Garibaldi Passante","45.484016","9.186476","0","TI,TN","-121726","","urn:trainline:generic:loc:22386","830001662","milano porta garibaldi passante",""
"Pistoia","43.92695","10.9145355","1","TI","-124951","","urn:trainline:generic:loc:20135","830006414","pistoia",""
"Minturno","41.257664","13.720765","0","TI","","","urn:trainline:generic:loc:19626","830009150","minturno-scauri",""
"Baranello","41.517838","14.596518","0","TI","","","urn:trainline:generic:loc:19191","830009458","baranello",""
"Trento Nord Zona Commerciale","46.09014","11.112843","0","TTE","-131282","","urn:trainline:generic:loc:66693","","","trento nord zona comm.le"
"Mannheim","49.459637","8.51723","0","TI","","","urn:trainline:generic:loc:7479","800014008","mannheim hbf",""
"Renate-Veduggio","45.728325","9.279862","0","TI,TN","","","urn:trainline:generic:loc:21935","830001489","renate-veduggio",""
"Soffratta","45.977127","12.298505","0","TI","","","urn:trainline:generic:loc:20551","830002732","soffratta",""
"Gavotti","41.334927","13.176631","0","TI","","","urn:trainline:generic:loc:19982","830008818","gavotti",""
"Fornacchia","42.44007","12.204727","0","ATAC","","","urn:trainline:generic:loc:66757","","",""
"Annà","37.92335","15.742341","0","TI","","","urn:trainline:generic:loc:23100","830011870","anna'",""
"Caltagirone","37.228874","14.527933","0","TI","","","urn:trainline:generic:loc:19212","830012270","caltagirone",""
"Candela-Sant'Agata di Puglia","41.150764","15.533434","0","TI","","","urn:trainline:generic:loc:19524","830011204","candela-s. agata di puglia",""
"Carrito-Ortona","42.026463","13.720198","0","TI","","","urn:trainline:generic:loc:20204","830008533","carrito-ortona",""
"Castel San Pietro Terme","44.40725","11.59807","0","TI","","","urn:trainline:generic:loc:19465","830005053","castel s. pietro terme",""
"Ponte a Elsa","43.694374","10.905962","0","TI","","","urn:trainline:generic:loc:19774","830006800","ponte a elsa",""
"Cassola","45.732353","11.795798","0","TI","","","urn:trainline:generic:loc:19828","830002506","cassola",""
"Isernia","41.597027","14.2355385","0","TI","","","urn:trainline:generic:loc:19631","830009053","isernia",""
"Erchie Stazione","40.413376","17.743387","0","TI","","","urn:trainline:generic:loc:34894","830041302","erchie stazione",""
"Sansepolcro","43.569763","12.135209","0","TI","","","urn:trainline:generic:loc:21969","830035238","sansepolcro",""
"Granarolo","44.35735","11.937439","0","TI","","","urn:trainline:generic:loc:19940","830005955","granarolo faentino",""
"Ruffano","39.987144","18.24865","0","TI","","","urn:trainline:generic:loc:35009","830041321","ruffano",""
"Portici Via Liberta'","40.816723","14.3463545","0","EAV","","","urn:trainline:generic:loc:66624","","",""
"Rufina","43.82227","11.485081","0","TI","","","urn:trainline:generic:loc:20400","830006703","rufina",""
"Calolziocorte-Olginate","45.801468","9.427272","0","TI,TN","","","urn:trainline:generic:loc:19210","830001524","calolziocorte-olginate",""
"Codroipo","45.965637","12.977122","0","TI","","","urn:trainline:generic:loc:19294","830002831","codroipo",""
"Colfelice","41.555767","13.601666","0","TI","","","urn:trainline:generic:loc:19297","830008862","colfelice",""
"Catanzaro Lido","38.82203","16.612904","1","TI","","","urn:trainline:generic:loc:19229","830011833","catanzaro lido",""
"Bari Crispi","41.12026","16.8464","0","FNB","-111255","","urn:trainline:generic:loc:66458","830055004","bari f. crispi",""
"Grasse","43.65861","6.923611","0","","","","urn:trainline:generic:loc:4195","870075772","grasse",""
"Marradi","44.079792","11.619147","0","TI","","","urn:trainline:generic:loc:21609","830006610","marradi-palazzuolo sul senio",""
"Codemondo","44.69406","10.5482025","0","","","","urn:trainline:generic:loc:66391","830080305","",""
"Fiesole Caldine","43.8304","11.307952","0","TI","","","urn:trainline:generic:loc:20594","830006953","fiesole-caldine",""
"Terlizzi Garibaldi","41.130733","16.540678","0","FNB","","","urn:trainline:generic:loc:66684","","",""
"Cosenza","39.31884","16.260181","0","TI","","","urn:trainline:generic:loc:19252","830011910","cosenza",""
"Dolo","45.453484","12.071732","0","TI","","","urn:trainline:generic:loc:19502","830002587","dolo",""
"Porrena","43.74458","11.746436","0","TI","","","urn:trainline:generic:loc:22417","830034107","PORRENA",""
"Ruderi di Sibilla","41.395443","13.205648","0","TI","","","urn:trainline:generic:loc:20986","830008819","ruderi di sibilla",""
"San Donà di Piave","45.639835","12.559791","0","TI","","SDP","urn:trainline:generic:loc:20700","830002666","s. dona' di piave-jesolo",""
"Consandolo","44.66379","11.776751","0","TI","","","urn:trainline:generic:loc:21022","830027230","consandolo",""
"Egna-Termeno/Neumarkt-Tramin","46.319237","11.257274","0","TI","","","urn:trainline:generic:loc:20058","830002032","egna-termeno neumarkt-tramin","egna-termeno"
"Rutigliano","41.011482","17.008366","0","FSE","","","urn:trainline:generic:loc:22237","830041007","rutigliano",""
"Porcari","43.83127","10.619235","0","TI","","","urn:trainline:generic:loc:19904","830006406","porcari",""
"Trecella","45.512447","9.478844","0","TI,TN","","","urn:trainline:generic:loc:22210","830001706","trecella",""
"Baden-Baden","48.79008","8.190799","0","TI","","","urn:trainline:generic:loc:7726","800014277","baden-baden",""
"Valledolmo","37.71755","13.719874","0","TI","","","urn:trainline:generic:loc:20407","830012231","valledolmo",""
"Anzola dell'Emilia","44.550983","11.196613","0","TI","","","urn:trainline:generic:loc:20284","830005040","anzola dell'emilia",""
"Castiglione del Lago","43.12324","12.032264","0","TI","-114721","","urn:trainline:generic:loc:19319","830006923","castiglione del lago",""
"Partinico","38.05867","13.109078","0","TI","","","urn:trainline:generic:loc:19901","830012124","partinico",""
"Torrazza Piemonte","45.211823","7.9700494","0","TI","","","urn:trainline:generic:loc:22377","830000234","torrazza piemonte",""
"Morano sul Po","45.170696","8.366178","0","TI","","","urn:trainline:generic:loc:19491","830000177","morano sul po",""
"Sant'Antonino","44.43366","8.939776","0","FGC","","","urn:trainline:generic:loc:66723","","",""
"Padula","40.335136","15.629922","0","TI","","","urn:trainline:generic:loc:19694","830009908","padula",""
"Torre del Greco (EAV)","40.793278","14.370082","0","EAV","","","urn:trainline:generic:loc:66689","","",""
"Casacalenda-Guardialfiera","41.738113","14.849582","0","TI","","","urn:trainline:generic:loc:21782","830009465","casacalenda-guardialfiera",""
"Diecimo-Pescaglia","43.95939","10.507812","0","TI","","","urn:trainline:generic:loc:19470","830006310","diecimo-pescaglia",""
"Lambrugo-Lurago","45.761597","9.238386","0","TI,TN","","","urn:trainline:generic:loc:21525","830025036","lambrugo-lurago d'erba",""
"Camporosso in Valcanale","46.51174","13.534411","0","TI","","","urn:trainline:generic:loc:19338","830003004","camporosso in valcanale",""
"Mozia-Birgi","37.884674","12.498973","0","TI","","","urn:trainline:generic:loc:21640","830012105","mozia-birgi",""
"Piove di Sacco","45.29486","12.041715","0","TI","","","urn:trainline:generic:loc:21739","830027520","piove di sacco",""
"Povir","45.699444","13.930556","0","","","","urn:trainline:generic:loc:66821","","",""
"Borgo San Lorenzo","43.9598","11.380277","0","TI","","","urn:trainline:generic:loc:19372","830006604","borgo s. lorenzo",""
"Paderno Franciacorta","45.586727","10.08703","0","TN","","","urn:trainline:generic:loc:21455","830026024","paderno franciacorta","paderno"
"Scisciano","40.912647","14.48056","0","EAV","","","urn:trainline:generic:loc:66672","","",""
"Casaletto Spartano-Battaglia","40.170395","15.718888","0","TI","","","urn:trainline:generic:loc:21765","830009913","casaletto spartano-battaglia",""
"Canegrate","45.56925","8.926585","0","TI,TN","","","urn:trainline:generic:loc:20907","830001034","canegrate",""
"Tremestieri","38.138096","15.52693","0","TI","","","urn:trainline:generic:loc:20956","830012303","tremestieri",""
"Vignale","45.479","8.61316","0","TI","","","urn:trainline:generic:loc:20441","830000021","vignale",""
"Gavorrano","42.947865","10.933798","0","TI","","","urn:trainline:generic:loc:20918","830006036","gavorrano",""
"Deruta-San Nicolò","43.01272","12.398776","0","TI","","","urn:trainline:generic:loc:21760","830035157","deruta-s. nicolo'",""
"Roma Tiburtina","41.911083","12.531088","0","TI,ITA","-126693","RTB","urn:trainline:generic:loc:8543","830008217","roma tiburtina","roma tib.|roma tib"
"Olbia","40.92507","9.499122","0","TI","-123255","","urn:trainline:generic:loc:19518","830012855","olbia",""
"Varano","43.574844","13.523477","0","TI","","","urn:trainline:generic:loc:20436","830007500","varano",""
"Mottola - Bivio","40.63882","17.038368","0","TI","","","urn:trainline:generic:loc:34974","830041300","mottola bivio",""
"Acilia","41.78341","12.360488","0","ATAC","","","urn:trainline:generic:loc:66740","","",""
"Tagliata","44.93098","10.682682","0","TI","","","urn:trainline:generic:loc:23053","830028328","tagliata",""
"Avignon TGV","43.92213","4.786078","0","TI","","","urn:trainline:generic:loc:485","870031896","avignon tgv",""
"Rocchetta Sant'Antonio-Lacedonia","41.07902","15.550467","0","TI","","","urn:trainline:generic:loc:21943","830011205","rocchetta s. antonio-lacedonia",""
"Genova Via di Francia","44.409466","8.9012165","0","TI","","","urn:trainline:generic:loc:20687","830004223","genova via di francia",""
"Molinetti","44.504223","8.99267","0","FGC","","","urn:trainline:generic:loc:66720","","",""
"Noicattaro","41.028847","16.986574","0","FSE","","","urn:trainline:generic:loc:21703","830041006","noicattaro",""
"Morigino","40.141853","18.31","0","FSE","","","urn:trainline:generic:loc:34973","830041298","morigino",""
"San Donaci","40.447437","17.923603","0","TI","","","urn:trainline:generic:loc:35018","830041326","san donaci",""
"San Donato Milanese","45.418358","9.253369","0","TI,TN","","","urn:trainline:generic:loc:22078","830001831","san donato milanese",""
"Vigodarzere","45.453415","11.891645","0","TI","","","urn:trainline:generic:loc:20505","830002528","vigodarzere",""
"San Cesario di Lecce","40.304054","18.16648","0","FSE","","","urn:trainline:generic:loc:21987","830041080","san cesario di lecce",""
"La Celsa","41.996387","12.496903","0","ATAC","","","urn:trainline:generic:loc:66759","","",""
"Settequerce/Siebeneich","46.508553","11.265192","0","TI","","","urn:trainline:generic:loc:20775","830002224","settequerce siebeneich",""
"Seiano","40.65601","14.426866","0","EAV","","","urn:trainline:generic:loc:66675","","",""
"Bibbiano Fossa","44.674313","10.478726","0","","","","urn:trainline:generic:loc:66375","830090667","","fossa (re)"
"Amorosi-Melizzano","41.192833","14.479295","0","TI","","","urn:trainline:generic:loc:19143","830009306","amorosi-melizzano",""
"Montagnana","45.228218","11.459841","0","TI","","","urn:trainline:generic:loc:19618","830002392","montagnana",""
"Sasso Marconi","44.39494","11.254333","0","TI","","","urn:trainline:generic:loc:20963","830005104","sasso marconi",""
"Cap D'Ail","43.720554","7.393611","0","","","","urn:trainline:generic:loc:4167","870075639","cap-d'ail",""
"Trestina","43.365627","12.237738","0","TI","","","urn:trainline:generic:loc:21960","830035211","trestina",""
"Roccavivi","41.817986","13.545043","0","TI","","","urn:trainline:generic:loc:19873","830008867","roccavivi",""
"Ottavia","41.960358","12.410142","0","TI","","","urn:trainline:generic:loc:19636","830008321","ottavia",""
"Pino-Tronzano","46.09864","8.7368555","0","TI,TN","","","urn:trainline:generic:loc:20138","830001110","pino-tronzano",""
"Dijon Ville","47.333195","5.058059","0","TI","","","urn:trainline:generic:loc:38","870071304","dijon",""
"Ceggia","45.688305","12.633948","0","TI","","","urn:trainline:generic:loc:19288","830002665","ceggia",""
"Anversa-Villalago-Scanno","42.017403","13.835727","0","TI","","","urn:trainline:generic:loc:19140","830008537","anversa-villalago-scanno",""
"Santa Maria di Pisa","40.74214","8.545311","0","ARST","","","urn:trainline:generic:loc:66667","","",""
"Cedegolo","46.07233","10.350044","0","TI,TN","","","urn:trainline:generic:loc:21080","830026011","cedegolo",""
"Potenza Santa Maria","40.64558","15.80102","0","FAL","","","urn:trainline:generic:loc:21527","","",""
"Trevi","42.87621","12.733815","0","TI","","","urn:trainline:generic:loc:20382","830007218","trevi",""
"San Gavino","39.557884","8.800879","0","TI","","","urn:trainline:generic:loc:22068","830012882","s. gavino",""
"Magnacavallo","45.002254","11.182379","0","TI","","","urn:trainline:generic:loc:21518","830032317","magnacavallo",""
"San Biagio di Callalta","45.68669","12.377425","0","TI","","","urn:trainline:generic:loc:20602","830002761","s. biagio di callalta",""
"Lambrinia","45.16436","9.527363","0","TI,TN","","","urn:trainline:generic:loc:22517","830001869","lambrinia",""
"Santa Maria a Vico","41.028603","14.462635","0","TI,EAV","","","urn:trainline:generic:loc:20970","830039020","s. maria a vico",""
"Dragoni Lecce","40.294273","18.142813","0","TI,FSE","","","urn:trainline:generic:loc:66395","830041244","dragoni lecce",""
"Meduno","46.20071","12.802955","0","TI","","","urn:trainline:generic:loc:20023","830003082","meduno",""
"Rho Fiera Milano","45.521217","9.088295","0","TI,TN,ITA","-126278","RRO","urn:trainline:generic:loc:20967","830001039","rho-fiera milano","milano rho fiera|milano expo rho"
"Vigliano d'Asti","44.827343","8.21829","0","TI","","","urn:trainline:generic:loc:20438","830000802","vigliano d'asti",""
"Riardo-Pietramelara","41.265217","14.125131","0","TI","","","urn:trainline:generic:loc:20357","830009204","riardo-pietramelara",""
"Foiano della Chiana","43.240353","11.796967","0","TI","","","urn:trainline:generic:loc:21727","830034007","foiano della chiana",""
"Roseto Capo Spulico","39.972393","16.620382","0","TI","","","urn:trainline:generic:loc:19758","830011806","roseto-capo spulico",""
"Jenbach","47.38802","11.771941","0","TI","","","urn:trainline:generic:loc:10487","810001176","jenbach",""
"Melano-Marischio","43.345116","12.858832","0","TI","","","urn:trainline:generic:loc:20865","830007065","melano-marischio",""
"Deiva Marina","44.21737","9.519053","0","TI","","","urn:trainline:generic:loc:20132","830004728","deiva marina",""
"Dicomano","43.89349","11.51924","0","TI","","","urn:trainline:generic:loc:19613","830006701","dicomano",""
"La Salle","45.74474","7.062004","0","TI","","","urn:trainline:generic:loc:19624","830000132","la salle",""
"Camporgiano","44.16139","10.334957","0","TI","","","urn:trainline:generic:loc:19337","830006324","camporgiano",""
"Zappulla","38.11692","14.703222","0","TI","","","urn:trainline:generic:loc:20796","830012029","zappulla",""
"Ordona","41.31499","15.620612","0","TI","","","urn:trainline:generic:loc:20109","830011202","ordona",""
"Tione degli Abruzzi","42.204895","13.642038","0","TI","","","urn:trainline:generic:loc:20565","830007426","tione degli abruzzi",""
"Biot","43.61111","7.126111","0","","","","urn:trainline:generic:loc:4194","870075769","biot",""
"Monasterace-Stilo","38.43739","16.574335","0","TI","","","urn:trainline:generic:loc:19622","830011844","monasterace-stilo",""
"Pisogne","45.806587","10.10559","0","TI,TN","","","urn:trainline:generic:loc:21743","830026029","pisogne",""
"Buttrio","46.012573","13.329135","0","TI","","","urn:trainline:generic:loc:19305","830003029","buttrio",""
"Fasano","40.851555","17.38579","0","TI","","","urn:trainline:generic:loc:19865","830011130","fasano",""
"Ardore","38.175728","16.207228","0","TI","","","urn:trainline:generic:loc:19174","830011853","ardore",""
"Santa Teresa Longarini","37.00646","15.24628","0","TI","","","urn:trainline:generic:loc:22253","830012428","s. teresa longarini",""
"Falconara Marittima","43.63048","13.397584","0","TI","","","urn:trainline:generic:loc:19923","830007111","falconara marittima",""
"Guardia Piemontese Terme","39.463963","15.979421","0","TI","","","urn:trainline:generic:loc:22318","830011737","guardia piemontese terme",""
"Rovello Porro","45.651047","9.036307","0","TI,TN","","","urn:trainline:generic:loc:22194","830025422","rovello porro",""
"Palermo (tutte le stazioni)","38.115505","13.363554","1","TI","-123798","","urn:trainline:generic:loc:22186","830012792","palermo ( tutte le stazioni )",""
"Catania Centrale","37.506573","15.100066","1","TI","-114787","","urn:trainline:generic:loc:19200","830012332","catania centrale",""
"Peschici Calenella","41.936646","15.984936","0","FG","-124347","","urn:trainline:generic:loc:21362","830037009","peschici-calenella","peschici-calenella"
"Venegono Superiore-Castiglione","45.75815","8.890749","0","TI,TN","","","urn:trainline:generic:loc:22082","830025231","venegono superiore-castiglione",""
"Arnoldstein","46.551224","13.706491","0","TI","","","urn:trainline:generic:loc:33639","810003662","arnoldstein",""
"Rocchetta Tanaro-Cerro","44.875477","8.351378","0","TI","","","urn:trainline:generic:loc:20367","830000466","rocchetta tanaro-cerro",""
"Firenze Santa Maria Novella","43.777363","11.247428","2","TI,ITA","-117543","SMN","urn:trainline:generic:loc:8434","830006421","firenze s. m. novella","firenze s.m.n.|firenze s.m.|firenze smn"
"Reggio Emilia Santo Stefano","44.70547","10.6238785","0","TI","","","urn:trainline:generic:loc:22137","830029101","reggio emilia s. stefano",""
"Sale delle Langhe","44.396988","8.083556","0","TI","","","urn:trainline:generic:loc:20802","830000743","sale langhe",""
"Acaja","40.333206","18.296871","0","TI","","","urn:trainline:generic:loc:34822","830041202","acaja",""
"San Polo d'Enza","44.62477","10.423667","0","TI","","","urn:trainline:generic:loc:22017","830029106","s. polo d'enza",""
"Sassoferrato Arcevia","43.43553","12.851778","0","TI","","","urn:trainline:generic:loc:20661","830007063","sassoferrato-arcevia",""
"Fara Sabina","42.156197","12.648418","0","TI","","","urn:trainline:generic:loc:20840","830008214","fara sabina-montelibretti",""
"Ponteperaria","46.39856","13.270838","0","","","","urn:trainline:generic:loc:66621","","",""
"Genova Rivarolo","44.43611","8.891033","0","TI","","","urn:trainline:generic:loc:20087","830004219","genova rivarolo",""
"Capua","41.101234","14.210472","0","TI","","","urn:trainline:generic:loc:20735","830009208","capua",""
"Magliano-Crava-Morozzo","44.445156","7.7775335","0","TI","","","urn:trainline:generic:loc:19803","830000951","magliano-crava-morozzo",""
"Borgo San Martino","45.0871","8.520634","0","TI","","","urn:trainline:generic:loc:19374","830000315","borgo s. martino",""
"Patù","39.843136","18.338114","0","TI","","","urn:trainline:generic:loc:34995","830041312","patu'",""
"Gazzo-Pieve San Giacomo","45.137028","10.189952","0","TI,TN","","","urn:trainline:generic:loc:21474","830001917","gazzo-pieve s. giacomo",""
"Prato Sardo","40.326683","9.290235","0","ARST","","","urn:trainline:generic:loc:21448","","",""
"Eur Magliana","41.83968","12.463316","0","ATAC","","","urn:trainline:generic:loc:66732","","",""
"Coronella","44.795742","11.543871","0","TI","","","urn:trainline:generic:loc:19351","830005726","coronella",""
"Minervino Murge","41.081787","16.075094","0","TI","","","urn:trainline:generic:loc:20896","830011403","minervino murge",""
"Sava (BUS)","40.4387","17.6098","0","FSE","","","urn:trainline:generic:loc:21930","830041420","sava (bus)","sava"
"Igea Marina","44.130833","12.482762","0","TI","","","urn:trainline:generic:loc:20039","830005818","igea marina",""
"San Giuliano Piacentino","45.070652","9.985944","0","TI","","","urn:trainline:generic:loc:20418","830001961","s. giuliano piacentino",""
"Barletta Centrale FNB","41.315376","16.278608","0","FNB","","","urn:trainline:generic:loc:61119","830055023","barletta centrale fnb",""
"Contrada San Basilio","40.68905","16.969479","0","TI","","","urn:trainline:generic:loc:34884","830041239","contrada san basilio",""
"Toline","45.787266","10.0882015","0","TI,TN","","","urn:trainline:generic:loc:22057","830026038","toline",""
"Cimitile","40.93854","14.53051","0","EAV","","","urn:trainline:generic:loc:66511","","",""
"Savignano Centro","44.48507","11.034502","0","","","","urn:trainline:generic:loc:22265","830005977","",""
"Orsara di Puglia","41.241955","15.277705","0","TI","","","urn:trainline:generic:loc:19588","830009320","orsara di puglia",""
"Noicattaro - Zona 167","41.034573","16.985046","0","TI","","","urn:trainline:generic:loc:34984","830041143","noicattaro zona 167",""
"Palermo Guadagna","38.09826","13.370855","0","TI","","","urn:trainline:generic:loc:66398","830012144","palermo guadagna","guadagna"
"Trento San Bartolameo","46.04753","11.135306","0","TI","-131282","","urn:trainline:generic:loc:22102","830002013","trento s. bartolameo","san bartolameo"
"Pietra Ligure","44.14557","8.277383","0","TI","-124749","","urn:trainline:generic:loc:20035","830004520","pietra ligure",""
"Piombino Dese","45.60943","12.000635","0","TI","","","urn:trainline:generic:loc:20834","830002509","piombino dese",""
"Travesio","46.187153","12.876919","0","TI","","","urn:trainline:generic:loc:20607","830003081","travesio",""
"Terlano-Andriano/Terlan-Andrian","46.528473","11.248654","0","TI","","","urn:trainline:generic:loc:22041","830002223","terlano-andriano terlan-andrian",""
"Reggio di Calabria Omeca","38.0816","15.634435","0","TI","-126191","","urn:trainline:generic:loc:21913","830011873","reggio di calabria omeca",""
"Cantalupo del Sannio","41.53064","14.393464","0","TI","","","urn:trainline:generic:loc:19348","830009451","cantalupo del sannio-macchiagodena",""
"Vetralla","42.304585","12.089137","0","TI","","","urn:trainline:generic:loc:20574","830008309","vetralla",""
"Bordiana","46.387215","10.98198","0","TTE","","","urn:trainline:generic:loc:66784","","",""
"San Martino in Gattara","44.113182","11.667053","0","TI","","","urn:trainline:generic:loc:20289","830006611","s. martino in gattara",""
"Serravalle all'Adige","45.808216","11.015147","0","TI","","","urn:trainline:generic:loc:20978","830002048","serravalle all'adige",""
"San Paolo Solbrito","44.951733","7.97573","0","TI","","","urn:trainline:generic:loc:20280","830000463","s. paolo solbrito",""
"Lison","45.75203","12.759678","0","TI","","","urn:trainline:generic:loc:21261","830002663","lison",""
"Tarvisio Boscoverde","46.506336","13.607185","0","TI","","","urn:trainline:generic:loc:20969","830003001","tarvisio boscoverde",""
"Todi Ponte Rio","42.78995","12.4186325","0","TI","-130843","","urn:trainline:generic:loc:22056","830035130","todi ponte rio",""
"Mandelieu La Napoule","43.523888","6.941389","0","","","","urn:trainline:generic:loc:19","870075759","mandelieu la napoule",""
"Centola","40.090508","15.346623","0","TI","","","urn:trainline:generic:loc:19161","830011715","centola-palinuro marina di camerota",""
"Calatabiano","37.81475","15.226577","0","TI","","","urn:trainline:generic:loc:19275","830012321","calatabiano",""
"Voghera","44.997864","9.008726","1","TI,TN","","","urn:trainline:generic:loc:20510","830001807","voghera",""
"Botricello","38.933994","16.857239","0","TI","","","urn:trainline:generic:loc:19155","830011829","botricello",""
"Vittuone-Arluno","45.490997","8.947238","0","TI,TN","","","urn:trainline:generic:loc:20508","830001042","vittuone-arluno",""
"Dossobuono","45.392147","10.914584","0","TI,TN","","","urn:trainline:generic:loc:19993","830002330","dossobuono",""
"Tuoro sul Trasimeno","43.196606","12.079586","0","TI","","","urn:trainline:generic:loc:20614","830007000","tuoro sul trasimeno",""
"Airuno","45.75568","9.422224","0","TI,TN","","","urn:trainline:generic:loc:21006","830001515","airuno",""
"Triggiano - Zona 167","41.06954","16.933126","0","TI","","","urn:trainline:generic:loc:35071","830041368","triggiano zona 167",""
"Merano/Meran","46.67333","11.14997","0","TI","-121562","","urn:trainline:generic:loc:18828","830002216","merano meran",""
"Torre Canne","40.83698","17.465773","0","TI","","","urn:trainline:generic:loc:35063","830041361","torre canne",""
"Pratofontana","44.74231","10.667267","0","TI","","","urn:trainline:generic:loc:23070","830080311","pratofontana",""
"Cascina","43.67458","10.5452795","0","TI","","","urn:trainline:generic:loc:20158","830006505","cascina",""
"Ceriano Laghetto-Solaro","45.624825","9.079361","0","TI,TN","","","urn:trainline:generic:loc:23096","830001934","ceriano laghetto-solaro",""
"Preganziol","45.603737","12.231496","0","TI","","","urn:trainline:generic:loc:19734","830002715","preganziol",""
"Modena Fornaci","44.613956","10.889827","0","TI","","","urn:trainline:generic:loc:22150","830030004","fornaci",""
"Monza","45.577732","9.273339","1","TI,TN","","","urn:trainline:generic:loc:19855","830001322","monza",""
"Statte","40.56567","17.212517","0","FSE","","","urn:trainline:generic:loc:21897","830041019","statte",""
"Primolano","45.96535","11.700907","0","TI","","","urn:trainline:generic:loc:19738","830002319","primolano",""
"Bari Parco Sud","41.115017","16.898144","0","TI","-111255","","urn:trainline:generic:loc:21340","830011125","bari parco sud",""
"Benevento Arco Traiano","41.13456","14.779937","0","TI","","","urn:trainline:generic:loc:19423","830009524","benevento arco traiano",""
"Malnate","45.795326","8.878231","0","TI,TN","","","urn:trainline:generic:loc:21428","830025233","malnate",""
"Juan Les Pins","43.570557","7.110556","0","","","","urn:trainline:generic:loc:4570","870075766","juan-les-pins",""
"Treviglio","45.515095","9.588708","1","TI,TN","","","urn:trainline:generic:loc:20383","830001708","treviglio",""
"San Gennaro","41.6746","12.726246","0","TI","","","urn:trainline:generic:loc:22385","830008736","san gennaro",""
"Omignano Salento","40.25274","15.134182","0","TI","","","urn:trainline:generic:loc:19816","830011708","omignano-salento",""
"Castiglione Cosentino","39.355644","16.244093","0","TI","","","urn:trainline:generic:loc:19233","830011909","castiglione cosentino",""
"Potenza San Rocco","40.64138","15.813716","0","FAL","","","urn:trainline:generic:loc:66628","","",""
"Palmi","38.365097","15.844517","0","TI","","","urn:trainline:generic:loc:19797","830011769","palmi",""
"Giarre - Via Callipoli","37.727486","15.184247","0","FCE","","","urn:trainline:generic:loc:66809","","",""
"Monzuno-Vado","44.32226","11.262133","0","TI","","","urn:trainline:generic:loc:19490","830005132","monzuno-vado","monzuno"
"Cagliari Elmas","39.26427","9.045557","0","TI","-112463","","urn:trainline:generic:loc:20329","830012890","cagliari-elmas",""
"Acquappesa","39.492302","15.953028","0","TI","","","urn:trainline:generic:loc:20067","830011736","acquappesa",""
"Attnang-Puchheim","48.012356","13.722043","0","TI","","","urn:trainline:generic:loc:17601","810001091","attnang-puchheim",""
"Lana-Postal/Lana-Burgstall","46.609516","11.181614","0","TI","","","urn:trainline:generic:loc:19690","830002219","lana-postal lana-burgstall",""
"Aprigliano","39.239777","16.328342","0","TI","","","urn:trainline:generic:loc:22429","830054201","aprigliano",""
"Cursi","40.14801","18.31261","0","TI","","","urn:trainline:generic:loc:34889","830041240","cursi",""
"Verres","45.659904","7.6901245","0","TI","","","urn:trainline:generic:loc:20808","830000145","verres",""
"Fidene","41.979176","12.508455","0","TI","","","urn:trainline:generic:loc:20938","830008225","fidene",""
"Brig","46.3194","7.987482","0","TI","","","urn:trainline:generic:loc:17537","850001609","brig",""
"Tagliacozzo","42.07069","13.255704","0","TI","","","urn:trainline:generic:loc:20247","830008522","tagliacozzo",""
"Lyon Perrache","45.7485","4.8257","0","TI,SNCF","","","urn:trainline:generic:loc:4677","870072202","lyon perrache",""
"Maglie - Via Toma","40.119415","18.289036","0","TI","","","urn:trainline:generic:loc:34938","830041477","maglie via toma",""
"Verolanuova","45.324986","10.083849","0","TI,TN","","","urn:trainline:generic:loc:20683","830001903","verolanuova",""
"Baiano","40.952766","14.617277","0","EAV","","","urn:trainline:generic:loc:66457","","",""
"Biancavilla Poggio Rosso","37.633636","14.881776","0","FCE","","","urn:trainline:generic:loc:66479","","",""
"Montecarlo-San Salvatore","43.85083","10.685399","0","TI","","","urn:trainline:generic:loc:19563","830006408","montecarlo-s. salvatore",""
"Gries Am Brenner","47.04139","11.485278","0","","","","urn:trainline:generic:loc:29162","810002266","gries",""
"Villefranche Sur Mer","43.70667","7.313611","0","","","","urn:trainline:generic:loc:5641","870075636","villefranche sur mer",""
"Geneve Aeroport","46.234497","6.101491","0","TI","","","urn:trainline:generic:loc:6320","850001026","geneve-aeroport",""
"Locate Varesino-Carbonate","45.689964","8.936064","0","TI,TN","","","urn:trainline:generic:loc:21539","830025370","locate varesino-carbonate",""
"Savignano Mulino","44.494137","11.047474","0","TI","","","urn:trainline:generic:loc:22259","830005976","savignano mulino",""
"Ambrì-Piotta","46.510616","8.690026","0","","","","urn:trainline:generic:loc:36778","850005202","ambri-piotta",""
"Catanzaro Pratica","38.9091","16.587194","0","TI","","","urn:trainline:generic:loc:21059","830054300","catanzaro pratica",""
"Fortezza/Franzensfeste","46.789185","11.610767","0","TI","","","urn:trainline:generic:loc:18840","830002011","fortezza franzensfeste",""
"Sala al Barro-Galbiate","45.8211","9.359169","0","TI,TN","","","urn:trainline:generic:loc:22394","830001461","sala al barro-galbiate",""
"Ferrera Lomellina","45.111847","8.862792","0","TI,TN","","","urn:trainline:generic:loc:21536","830000404","ferrera lomellina",""
"Meina","45.794456","8.535498","0","TI","","","urn:trainline:generic:loc:20024","830001019","meina",""
"Fino Mornasco","45.74658","9.047082","0","TI,TN","","","urn:trainline:generic:loc:21550","830025428","fino mornasco",""
"Judenburg","47.17474","14.659887","0","","","","urn:trainline:generic:loc:17498","810003615","",""
"Trezzano sul Naviglio","45.420464","9.067028","0","TI,TN","","","urn:trainline:generic:loc:22338","830001065","trezzano sul naviglio",""
"Chatillon-Saint Vincent","45.742897","7.61768","0","TI","","","urn:trainline:generic:loc:21293","830000142","chatillon-saint vincent",""
"Caluso","45.303146","7.90256","0","TI","","","urn:trainline:generic:loc:20914","830000158","caluso",""
"Lodi","45.309055","9.497609","1","TI,TN","","","urn:trainline:generic:loc:19842","830001825","lodi",""
"Bressanone/Brixen","46.710213","11.649871","0","TI","-112159","","urn:trainline:generic:loc:18825","830002014","bressanone brixen",""
"Broni","45.06629","9.258848","0","TI,TN","","","urn:trainline:generic:loc:20233","830001944","broni",""
"Pozzallo","36.7336","14.847179","0","TI","-125637","","urn:trainline:generic:loc:19824","830012420","pozzallo",""
"Bagnolo in Piano","44.76567","10.675499","0","TI","","","urn:trainline:generic:loc:21806","830029202","bagnolo in piano",""
"Greccio","42.462826","12.776896","0","TI","","","urn:trainline:generic:loc:20102","830007403","greccio",""
"Benevento Appia","41.134834","14.767272","0","TI,EAV","","","urn:trainline:generic:loc:19422","830039006","benevento appia",""
"Bagnoli-Agnano Terme","40.819405","14.166671","0","TI","","","urn:trainline:generic:loc:20190","830009102","bagnoli-agnano terme",""
"Baciano","43.59682","11.871356","0","TI","","","urn:trainline:generic:loc:23082","830006081","baciano",""
"San Cristoforo al Lago-Ischia","46.039413","11.233585","0","TI","","","urn:trainline:generic:loc:20484","830002306","s. cristoforo al lago-ischia",""
"Genova Pegli","44.426216","8.816933","0","TI","","","urn:trainline:generic:loc:20942","830004536","genova pegli",""
"San Giorgio A Cremano","40.83239","14.337439","0","EAV","","","urn:trainline:generic:loc:66655","","","s. giorgio a cremano"
"Acerra","40.947247","14.382378","0","TI,EAV","","","urn:trainline:generic:loc:19254","830009215","acerra",""
"Calatafimi","37.93883","12.856059","0","TI","","","urn:trainline:generic:loc:19276","830012151","calatafimi",""
"Bologna Centrale","44.50662","11.3426","2","TI,ITA","-111742","BC_","urn:trainline:generic:loc:10456","830005043","bologna centrale","bologna c.le|bologna c.le/av|bologna"
"Les Arcs Draguignan","43.455612","6.482583","0","TI","","","urn:trainline:generic:loc:5816","870075544","les arcs draguignan",""
"Castel Lagopesole","40.78765","15.758062","0","TI","","","urn:trainline:generic:loc:20941","830011212","castel lagopesole",""
"Venaria","45.132225","7.6348324","0","TI","","","urn:trainline:generic:loc:22271","830000085","venaria",""
"Badia Polesine","45.09446","11.484765","0","TI","","","urn:trainline:generic:loc:20173","830002370","badia polesine",""
"Arzergrande","45.27533","12.040003","0","TI","","","urn:trainline:generic:loc:21002","830027518","arzergrande",""
"La Trencia","40.854004","14.171893","0","EAV","","","urn:trainline:generic:loc:66550","","",""
"La Spezia Centrale","44.1116","9.813591","1","TI","-119773","","urn:trainline:generic:loc:20898","830006000","la spezia centrale",""
"Monopoli","40.95215","17.292614","0","TI,FSE","-122100","","urn:trainline:generic:loc:19615","830011129","monopoli",""
"Arezzo","43.460976","11.875377","1","TI","-110636","","urn:trainline:generic:loc:19176","830006915","arezzo",""
"Cuma","40.84753","14.054175","0","EAV","","","urn:trainline:generic:loc:66522","","",""
"Castelnuovo","42.129623","12.495048","0","ATAC","","","urn:trainline:generic:loc:66748","","",""
"Villasanta","45.60334","9.304858","0","TI,TN","","","urn:trainline:generic:loc:22572","830001481","villasanta",""
"Pollena Trocchia","40.859924","14.380084","0","EAV","","","urn:trainline:generic:loc:66617","","",""
"Caltanissetta Xirbi","37.536278","14.056899","0","TI","","","urn:trainline:generic:loc:19214","830012380","caltanissetta xirbi",""
"Baia","40.822357","14.065776","0","EAV","","","urn:trainline:generic:loc:66456","","",""
"Villafranca-Cantarana","44.90894","8.043799","0","TI","","","urn:trainline:generic:loc:22532","830000459","villafranca-cantarana",""
"Schio","45.710583","11.357385","0","TI","","","urn:trainline:generic:loc:20293","830002140","schio",""
"Ivrea","45.461464","7.876344","0","TI","","","urn:trainline:generic:loc:19651","830000154","ivrea",""
"Manoppello","42.30587","14.061097","0","TI","","","urn:trainline:generic:loc:19987","830007710","manoppello",""
"Napoli Piazza Leopardi","40.82427","14.200344","0","TI","-122902","","urn:trainline:generic:loc:21699","830009104","napoli piazza leopardi",""
"Napoli Molo Beverello","40.83733","14.254801","0","TI","","","urn:trainline:generic:loc:22365","830086707","napoli molo beverello",""
"Livorno Centrale","43.553986","10.336622","1","TI","","","urn:trainline:generic:loc:19457","830006725","livorno centrale",""
"Cismon del Grappa","45.919617","11.729333","0","TI","","","urn:trainline:generic:loc:20932","830002500","cismon del grappa",""
"Villa Baldassarri","40.417465","17.964739","0","TI","","","urn:trainline:generic:loc:35086","830041376","villa baldassarri",""
"Ranzo-Sant'Abbondio","46.110653","8.769571","0","TI,TN","","","urn:trainline:generic:loc:66640","","",""
"Eboli","40.611202","15.052418","0","TI","","","urn:trainline:generic:loc:20057","830009824","eboli",""
"Pietrasanta","43.955925","10.229712","0","TI","-124774","","urn:trainline:generic:loc:19954","830006012","pietrasanta",""
"Ronchi dei Legionari Nord","45.830215","13.5059395","0","TI","","","urn:trainline:generic:loc:21454","830003309","ronchi dei legionari nord",""
"Piscinola","40.89311","14.239762","0","EAV","","","urn:trainline:generic:loc:66612","","",""
"Anzano del Parco","45.764965","9.202669","0","TI,TN","","","urn:trainline:generic:loc:21898","830001453","anzano del parco",""
"Catania Porto","37.501472","15.094689","0","FCE","","","urn:trainline:generic:loc:66503","","",""
"Palazzolo Milanese","45.580994","9.156544","0","TI,TN","","","urn:trainline:generic:loc:21468","830025014","palazzolo milanese",""
"Palermo Sferracavallo","38.19538","13.275593","0","TI","-123798","","urn:trainline:generic:loc:66407","830012066","palermo sferracavallo",""
"Robecco-Pontevico","45.266247","10.078638","0","TI,TN","","","urn:trainline:generic:loc:21941","830001904","robecco-pontevico",""
"Terzo-Montabone","44.67202","8.428812","0","TI","","","urn:trainline:generic:loc:20750","830000869","terzo-montabone",""
"Palermo Imperatore Federico","38.145298","13.348378","0","TI","","","urn:trainline:generic:loc:20041","830012136","palermo imperatore federico","federico"
"Vallelunga","37.691296","13.846652","0","TI","","","urn:trainline:generic:loc:20408","830012232","vallelunga",""
"Acquarica del capo","39.914143","18.24458","0","FSE","","","urn:trainline:generic:loc:34823","830041287","acquarica del capo",""
"Via Gianturco","40.845978","14.287237","0","EAV","","","urn:trainline:generic:loc:66700","","",""
"Linz Hbf","48.29139","14.29204","0","TI","","","urn:trainline:generic:loc:17557","810001073","Linz Hbf",""
"Gerenzano-Turate","45.645645","9.00156","0","TI,TN","","","urn:trainline:generic:loc:22316","830025222","gerenzano-turate",""
"San Benedetto del Tronto","42.954384","13.882259","0","TI","-127284","","urn:trainline:generic:loc:22031","830007513","s. benedetto del tronto",""
"Marano Ticino","45.629517","8.626178","0","TI","","","urn:trainline:generic:loc:20711","830000983","marano ticino",""
"Villabartolomea","45.15315","11.348777","0","TI","","","urn:trainline:generic:loc:20805","830002367","villabartolomea",""
"Cala Sabina","41.01076","9.587726","0","TI","","","urn:trainline:generic:loc:21103","830012851","cala sabina",""
"Fragneto Monforte","41.2473","14.764865","0","TI","","","urn:trainline:generic:loc:19567","830009506","fragneto monforte",""
"Lecco Maggianico","45.83082","9.411983","0","TI,TN","","","urn:trainline:generic:loc:21399","830001522","lecco maggianico",""
"Alfonsine","44.511585","12.0401945","0","TI","","","urn:trainline:generic:loc:19433","830005808","alfonsine",""
"Campomarino","41.957397","15.04243","0","TI","","","urn:trainline:generic:loc:19336","830011020","campomarino",""
"Certaldo","43.54717","11.037722","0","TI","-115178","","urn:trainline:generic:loc:20165","830006803","certaldo",""
"Mombaldone-Roccaverano","44.56986","8.332614","0","TI","","","urn:trainline:generic:loc:20889","830000873","mombaldone-roccaverano",""
"Cannole","40.156006","18.37292","0","FSE","","","urn:trainline:generic:loc:21134","830041121","cannole",""
"San Pancrazio Salentino","40.421223","17.836576","0","FSE","","","urn:trainline:generic:loc:22476","830041039","san pancrazio salentino",""
"Genova (tutte le stazioni)","44.407196","8.941637","1","TI","","","urn:trainline:generic:loc:8450","830004999","genova ( tutte le stazioni )",""
"Poggiomarino","40.800972","14.540312","0","EAV","","","urn:trainline:generic:loc:66614","","",""
"Mezzenile","45.295696","7.3990126","0","TI","","","urn:trainline:generic:loc:22578","830000118","mezzenile",""
"Nicorvo","45.27545","8.671239","0","TI,TN","","","urn:trainline:generic:loc:21702","830000273","nicorvo",""
"Santa Giuletta","45.035725","9.179282","0","TI,TN","","","urn:trainline:generic:loc:20416","830001943","s. giuletta",""
"Sarno","40.813255","14.612069","0","TI,EAV","","","urn:trainline:generic:loc:20774","830009702","sarno",""
"Torino Porta Nuova","45.060898","7.6775203","2","TI,ITA","","TOP","urn:trainline:generic:loc:8567","830000219","torino porta nuova","torino p.n.|torino p. nuova|torino p.nuova"
"Mozzecane","45.306717","10.823697","0","TI","","","urn:trainline:generic:loc:20873","830002332","mozzecane",""
"Rimini Viserba","44.088245","12.533985","0","TI","-126373","","urn:trainline:generic:loc:19514","830005820","rimini viserba",""
"Bellisio Solfare","43.51988","12.823694","0","TI","","","urn:trainline:generic:loc:19417","830007061","bellisio solfare",""
"Marcellina-Verbicaro-Orsomarso","39.766598","15.822437","0","TI","","","urn:trainline:generic:loc:19755","830011728","marcellina-verbicaro-orsomarso",""
"Salerno Irno","40.682873","14.775812","0","TI","-127126","","urn:trainline:generic:loc:20266","830009532","salerno irno",""
"Taranto - Piazza Castello","40.473404","17.233547","0","TI","","","urn:trainline:generic:loc:35049","830098132","taranto piazza castello",""
"Firenze Rifredi","43.80008","11.236163","0","TI","-117543","","urn:trainline:generic:loc:8435","830006420","firenze rifredi",""
"Grandate-Breccia","45.781345","9.055791","0","TI,TN","","","urn:trainline:generic:loc:21735","830025431","grandate-breccia",""
"Monsampolo del Tronto","42.885674","13.818865","0","TI","","","urn:trainline:generic:loc:19616","830007023","monsampolo del tronto",""
"Soleminis","39.345814","9.176327","0","ARST","","","urn:trainline:generic:loc:22529","","",""
"Pomigliano D'Arco","40.91462","14.39284","0","EAV","","","urn:trainline:generic:loc:66618","","",""
"Amstetten","48.122383","14.885939","0","TI","","","urn:trainline:generic:loc:17540","810001049","amstetten",""
"Cappuccini","40.822224","14.125854","0","EAV","","","urn:trainline:generic:loc:66496","","",""
"Manzano","45.988045","13.375058","0","TI","","","urn:trainline:generic:loc:20940","830003030","manzano",""
"Cervignano-Aquileia-Grado","45.823986","13.343237","0","TI","","","urn:trainline:generic:loc:20168","830003207","cervignano-aquileia-grado",""
"Oristano","39.90188","8.603994","0","TI","","","urn:trainline:generic:loc:19586","830012878","oristano",""
"Manduria - Piazza Vittorio Emanuele","40.39827","17.637112","0","TI","","","urn:trainline:generic:loc:34941","","",""
"Altavilla Tavernelle","45.511784","11.454341","0","TI","","","urn:trainline:generic:loc:19411","830002444","altavilla-tavernelle",""
"Villa San Giovanni","38.21666","15.634553","1","TI,ITA","","VSG","urn:trainline:generic:loc:20521","830011774","villa s. giovanni",""
"Galliera","44.737717","11.441598","0","TI","","","urn:trainline:generic:loc:19507","830005721","galliera",""
"Gambettola","44.116737","12.327502","0","TI","","","urn:trainline:generic:loc:20012","830005067","gambettola",""
"Pinzano (centro)","46.179585","12.95031","0","","","","urn:trainline:generic:loc:66609","","",""
"Bivio Cerignola-San Leonardo","41.600506","15.876649","0","","","","urn:trainline:generic:loc:66483","","",""
"Cagnano Varano","41.825325","15.769747","0","TI,FG","","","urn:trainline:generic:loc:21101","830037004","cagnano varano",""
"Erstfeld","46.82026","8.650473","0","TI","","","urn:trainline:generic:loc:18286","850005114","",""
"Gerra (gambarogno)","46.12411","8.785652","0","TI,TN","","","urn:trainline:generic:loc:36585","","",""
"Sanguinetto","45.1888","11.152469","0","TI","","","urn:trainline:generic:loc:20664","830002384","sanguinetto",""
"Sacile","45.948288","12.498245","0","TI","","","urn:trainline:generic:loc:20604","830002703","sacile",""
"Carmagnola","44.847046","7.7278085","0","TI","","","urn:trainline:generic:loc:20219","830000601","carmagnola",""
"La Fiora","41.33299","13.198609","0","TI","","","urn:trainline:generic:loc:19623","830008810","la fiora",""
"Corigliano Calabro","39.6282","16.514917","0","TI","","","urn:trainline:generic:loc:20279","830011812","corigliano calabro",""
"Ferrandina","40.516182","16.475609","0","TI,ITA","","FEA","urn:trainline:generic:loc:21379","830011458","ferrandina-scalo matera",""
"Taranto - Via Magnaghi","40.468075","17.26612","0","TI","","","urn:trainline:generic:loc:35056","830041356","taranto via magnaghi",""
"Campi Salentina","40.3934","18.01464","0","FSE","","","urn:trainline:generic:loc:22412","830041042","campi salentina",""
"Saint Valentin","48.17826","14.523026","0","TI","","","urn:trainline:generic:loc:17582","810001061","St. Valentin",""
"Fabrica","42.333984","12.309588","0","ATAC","","","urn:trainline:generic:loc:66754","","",""
"Porta San Paolo","41.874146","12.482423","0","ATAC","","","urn:trainline:generic:loc:66739","","",""
"Aragona Caldare","37.381035","13.636771","0","TI","","","urn:trainline:generic:loc:19146","830012370","aragona-caldare",""
"Recco","44.361107","9.146695","0","TI","","","urn:trainline:generic:loc:19971","830004714","recco",""
"Toritto","40.99591","16.684092","0","FAL","","","urn:trainline:generic:loc:22012","","",""
"Trento - Solteri Bivio SS12","46.084045","11.119732","0","TTE","","","urn:trainline:generic:loc:66800","","",""
"Diano","43.925236","8.073164","0","TI","-116797","","urn:trainline:generic:loc:28974","830004511","diano","diano marina"
"Bagni di Lusnizza","46.50484","13.374933","0","TI","","","urn:trainline:generic:loc:20751","830003008","bagni di lusnizza",""
"Iglesias","39.310543","8.539928","0","TI","","","urn:trainline:generic:loc:20875","830012950","iglesias",""
"Niccone","43.32112","12.297869","0","","","","urn:trainline:generic:loc:66405","830080607","",""
"Calceranica","46.007412","11.240777","0","TI","","","urn:trainline:generic:loc:19277","830002307","calceranica",""
"Imperia","43.897305","8.031167","1","TI","-119237","","urn:trainline:generic:loc:28953","830004523","imperia",""
"Civita Castellana","42.291576","12.413527","0","ATAC","","","urn:trainline:generic:loc:66751","","",""
"Frugarolo-Boscomarengo","44.841633","8.682666","0","TI","","","urn:trainline:generic:loc:19509","830004200","frugarolo-boscomarengo",""
"Legnano","45.59361","8.910747","0","TI,TN","","","urn:trainline:generic:loc:19937","830001033","legnano",""
"San Tomaso","44.794003","10.691375","0","TI","","","urn:trainline:generic:loc:23073","830080315","s. tomaso",""
"Papiano-Castello delle Forme","42.96548","12.374739","0","TI","","","urn:trainline:generic:loc:22508","830035153","papiano-castello delle forme",""
"Rovereto","45.890823","11.033906","1","TI,ITA","","RVR","urn:trainline:generic:loc:18831","830002044","rovereto",""
"Via Nocera","40.7012","14.490977","0","EAV","","","urn:trainline:generic:loc:66702","","",""
"Roma Prenestina","41.897793","12.54599","0","TI","-126693","","urn:trainline:generic:loc:19722","830008500","roma prenestina",""
"Malè","46.35373","10.916977","0","TI","","","urn:trainline:generic:loc:21427","830015001","male'",""
"Condofuri","37.927765","15.874879","0","TI","","","urn:trainline:generic:loc:20792","830011861","condofuri",""
"Canazei","46.474617","11.795878","0","TI","","","urn:trainline:generic:loc:29447","830013854","canazei",""
"Corvo Aranceto","38.84655","16.61073","0","TI","","","urn:trainline:generic:loc:66423","830054316","corvo aranceto",""
"Saronno","45.62533","9.030505","0","TI,TN","","","urn:trainline:generic:loc:21984","830025119","saronno",""
"Putignano in Monte Laureto","40.8288","17.10787","0","FSE","","","urn:trainline:generic:loc:22498","830041028","putignano monte laureto",""
"Monterosso Marche","43.462105","12.818341","0","TI","","","urn:trainline:generic:loc:19808","830007062","monterosso marche",""
"Mogliano Veneto","45.561905","12.2328615","0","TI","","","urn:trainline:generic:loc:19893","830002717","mogliano veneto",""
"Crotone","39.084496","17.108372","0","TI","","","urn:trainline:generic:loc:20228","830011823","crotone",""
"Ceglie Messapica","40.646896","17.521908","0","FSE","-114964","","urn:trainline:generic:loc:21117","830041032","ceglie messapica",""
"Calbenzano","43.611313","11.864038","0","TI","","","urn:trainline:generic:loc:23083","830006080","calbenzano",""
"Acate","36.996647","14.4254265","0","TI","","","urn:trainline:generic:loc:19383","830012409","acate",""
"Strudà","40.320503","18.281916","0","TI","","","urn:trainline:generic:loc:35042","830041344","struda'",""
"Cros De Cagnes","43.660557","7.1675","0","","","","urn:trainline:generic:loc:4165","870075633","cros de cagnes",""
"Asciano Monte Oliveto Maggiore","43.231724","11.563505","0","TI","","","urn:trainline:generic:loc:20991","830006825","asciano-monte oliveto maggiore",""
"Bari Policlinico","41.10985","16.855204","0","FAL","-111255","","urn:trainline:generic:loc:23021","","",""
"Bonorva","40.41775","8.760735","0","TI","","","urn:trainline:generic:loc:19340","830012867","bonorva",""
"Allerona-Castel Viscardo","42.785072","12.03534","0","TI","","","urn:trainline:generic:loc:19169","830008202","allerona-castel viscardo",""
"Romano","45.52379","9.753436","0","TI,TN","","","urn:trainline:generic:loc:19891","830001711","romano",""
"San Severo","41.684494","15.39257","0","TI,FG","","","urn:trainline:generic:loc:20659","830011025","s. severo",""
"Strigno","46.051037","11.514297","0","TI","","","urn:trainline:generic:loc:20322","830002315","strigno",""
"Busalletta","44.497173","8.98855","0","FGC","","","urn:trainline:generic:loc:66713","","",""
"Scarlino","42.942005","10.836779","0","TI","","","urn:trainline:generic:loc:20292","830006035","scarlino",""
"Ponte Felcino","43.131325","12.436775","0","TI","","","urn:trainline:generic:loc:21561","830035180","pontefelcino",""
"Castel Madama","41.98836","12.8649435","0","TI","","","urn:trainline:generic:loc:19858","830008510","castel madama",""
"Sella di Corno","42.360275","13.190258","0","TI","","","urn:trainline:generic:loc:20244","830007411","sella di corno",""
"Fiumelatte","45.999016","9.292832","0","TI,TN","","","urn:trainline:generic:loc:21659","830001412","fiumelatte",""
"Polla","40.512917","15.497241","0","TI","","","urn:trainline:generic:loc:20704","830009903","polla",""
"Montefiascone","42.520267","12.050406","0","TI","","","urn:trainline:generic:loc:19668","830008303","montefiascone",""
"Celle","44.34242","8.542385","0","TI","","","urn:trainline:generic:loc:21099","830004530","celle",""
"Genova Sestri Ponente","44.42238","8.84762","0","TI","","","urn:trainline:generic:loc:20089","830004537","genova sestri ponente aeroporto",""
"Pozzuoli","40.824883","14.121554","0","EAV","","","urn:trainline:generic:loc:66632","","","pozzuoli (eav)"
"Caprarola","42.30381","12.258239","0","TI","","","urn:trainline:generic:loc:20226","830008110","caprarola",""
"Frosinone","41.62528","13.328628","0","TI","","","urn:trainline:generic:loc:19508","830008662","frosinone",""
"Salorno/Salurn","46.245495","11.203256","0","TI","","","urn:trainline:generic:loc:20246","830002034","salorno salurn","salorno"
"Santo Stefano Lodigiano","45.122097","9.7237","0","TI,TN","","","urn:trainline:generic:loc:20741","830001829","s. stefano lodigiano",""
"Canaro","44.922955","11.675314","0","TI","","","urn:trainline:generic:loc:19522","830005709","canaro",""
"Ghedi","45.409508","10.280113","0","TI,TN","","","urn:trainline:generic:loc:21729","830001841","ghedi",""
"Civitavecchia Porto","42.100243","11.783729","0","TI","","","urn:trainline:generic:loc:66430","830013867","civitavecchia porto",""
"Bovisio Masciago","45.611973","9.141477","0","TI,TN","","","urn:trainline:generic:loc:20997","830025016","bovisio masciago","bovisio masciago-mombello"
"Riola","44.22988","11.053564","0","TI","","","urn:trainline:generic:loc:19888","830005108","riola",""
"Taranto - Piazza Fontana","40.4789","17.2251","0","TI","","","urn:trainline:generic:loc:34299","830041351","taranto piazza fontana",""
"Gambolò-Remondò","45.235214","8.799661","0","TI,TN","","","urn:trainline:generic:loc:21549","830000274","gambolo'-remondo'",""
"Rocca d'Evandro","41.43877","13.910193","0","TI","","","urn:trainline:generic:loc:21942","830009200","rocca d'evandro-s. vittore",""
"Sant'Antonino Vaie","45.109413","7.275873","0","TI","","","urn:trainline:generic:loc:20340","830000211","s. antonino-vaie",""
"Mongardino","44.84159","8.207412","0","TI","","","urn:trainline:generic:loc:19488","830000801","mongardino",""
"Bellinzago","45.56675","8.627656","0","TI","","","urn:trainline:generic:loc:19416","830000985","bellinzago",""
"Macherio Sovico","45.64248","9.266681","0","TI,TN","","","urn:trainline:generic:loc:21592","830001500","macherio-sovico",""
"Montale-Agliana","43.91288","11.008455","0","TI","","","urn:trainline:generic:loc:19620","830006415","montale-agliana",""
"Salignano","39.835598","18.358347","0","TI","","","urn:trainline:generic:loc:35014","830041323","salignano",""
"Fauglia-Lorenzana","43.55183","10.503041","0","TI","","","urn:trainline:generic:loc:20719","830006021","fauglia-lorenzana",""
"Capocroce","41.40064","13.204752","0","TI","","","urn:trainline:generic:loc:20218","830008811","capocroce",""
"Appiano Proba Petronia","41.912968","12.438744","0","TI","","","urn:trainline:generic:loc:20589","830008334","appiano proba petronia",""
"Gemelli","41.927853","12.427862","0","TI","","","urn:trainline:generic:loc:19887","830008329","gemelli",""
"Napoli Porto Immacolatella","40.841747","14.259308","0","TI","","","urn:trainline:generic:loc:34978","830086802","napoli porto immacolatella",""
"Carbonara","41.073467","16.8709","0","TI","","","urn:trainline:generic:loc:34856","830041301","carbonara",""
"Roccavione","44.31444","7.4852686","0","TI","","","urn:trainline:generic:loc:19872","830000614","roccavione",""
"Fornovo","44.69371","10.101942","0","TI","","","urn:trainline:generic:loc:19930","830006153","fornovo",""
"Rodda Quadda","40.7594","8.539164","0","ARST","","","urn:trainline:generic:loc:66645","","",""
"Erchie - Torre Santa Susanna","40.413353","17.744295","0","FSE","","","urn:trainline:generic:loc:22457","830041038","erchie-torre santa susanna",""
"Losa","45.283325","7.4187827","0","TI","","","urn:trainline:generic:loc:22283","830000116","losa",""
"Polignano a Mare","40.991016","17.21861","0","TI,FSE","-125217","","urn:trainline:generic:loc:20121","830011128","polignano a mare",""
"Motta di Livenza","45.77902","12.607628","0","TI","","","urn:trainline:generic:loc:19711","830002767","motta di livenza",""
"Carpignano Sesia","45.52889","8.422895","0","TI","","","urn:trainline:generic:loc:20224","830000971","carpignano sesia",""
"Wien Matzleinsdorf","48.180565","16.356152","0","TI","","","urn:trainline:generic:loc:23013","810002848","Matzleinsdorfer Platz",""
"Alessano - Corsano","39.892105","18.346943","0","FSE","","","urn:trainline:generic:loc:21219","830041111","alessano-corsano",""
"Denno","46.262894","11.060161","0","TTE","","","urn:trainline:generic:loc:66528","","",""
"Ridotti-Collepiano","41.789154","13.578461","0","TI","","","urn:trainline:generic:loc:20370","830008869","ridotti-collepiano",""
"Rosenheim","47.85784","12.125253","0","TI","","","urn:trainline:generic:loc:7231","800020174","rosenheim",""
"Brunnen","46.999397","8.610305","0","TI","","","urn:trainline:generic:loc:18282","850005007","",""
"Gualtieri","44.90124","10.628696","0","TI","","","urn:trainline:generic:loc:21773","830028320","gualtieri",""
"Andria Verdi","41.2236","16.30691","0","FNB","","","urn:trainline:generic:loc:66447","","",""
"Villa Bonelli","41.8479","12.4551115","0","TI","","","urn:trainline:generic:loc:20507","830008414","villa bonelli",""
"Vello","45.753407","10.082359","0","TI,TN","","","urn:trainline:generic:loc:22061","830026039","vello",""
"Torino Dora","45.09008","7.677849","0","TI","","","urn:trainline:generic:loc:22039","830082332","torino dora gtt",""
"Orbetello-Monte Argentario","42.450874","11.248658","0","TI","","","urn:trainline:generic:loc:21370","830008004","orbetello-monte argentario","orbetello"
"Locri","38.23327","16.264788","0","TI","","","urn:trainline:generic:loc:19841","830011851","locri",""
"Mulinetti","44.362244","9.130295","0","TI","","","urn:trainline:generic:loc:20034","830004713","mulinetti",""
"Saletto","45.22272","11.535082","0","TI","","","urn:trainline:generic:loc:20238","830002394","saletto",""
"Valle Aurelia","41.902996","12.442159","0","TI","","","urn:trainline:generic:loc:20496","830008332","valle aurelia",""
"Locate Triulzi","45.359745","9.221469","0","TI,TN","","","urn:trainline:generic:loc:21529","830001801","locate triulzi","locate-triulzi"
"Montoro-Forino","40.82","14.757437","0","TI","","","urn:trainline:generic:loc:19854","830009518","montoro-forino",""
"Gioiosa Marea","38.174675","14.894684","0","TI","","","urn:trainline:generic:loc:20094","830012033","gioiosa marea",""
"Valenzano Rione Lamie (BUS)","41.033684","16.876415","0","FSE","","","urn:trainline:generic:loc:35080","830041400","valenzano lamie (bus)",""
"Napoli Afragola","40.931786","14.331252","0","TI,ITA","-122902","NAF","urn:trainline:generic:loc:29033","830009988","napoli afragola",""
"Quiliano Vado","44.279236","8.434539","0","TI","","","urn:trainline:generic:loc:20887","830004527","quiliano-vado ligure",""
"Vallazza-Carbonara Po","44.998707","11.220952","0","TI","","","urn:trainline:generic:loc:21996","830032318","vallazza-carbonara po",""
"Nardò Centrale","40.16175","18.049253","0","FSE","-122918","","urn:trainline:generic:loc:21705","830041088","nardo' centrale",""
"Ficarazzi","38.086555","13.463247","0","TI","","","urn:trainline:generic:loc:20651","830012035","ficarazzi",""
"Taranto - Via Millo","40.4676","17.265574","0","TI","","","urn:trainline:generic:loc:35057","830041357","taranto via millo",""
"Albano Sant'Alessandro","45.683773","9.767654","0","TI,TN","","","urn:trainline:generic:loc:21232","830001534","albano s. alessandro",""
"Sizzano","45.57384","8.436039","0","TI","","","urn:trainline:generic:loc:20948","830000111","sizzano",""
"Lanzago","45.663063","12.293027","0","TI","","","urn:trainline:generic:loc:23088","830060060","lanzago",""
"Nichelino","44.991337","7.6420918","0","TI","","","urn:trainline:generic:loc:20878","830000511","nichelino",""
"Zuerich Hb","47.379803","8.541577","0","TI","","","urn:trainline:generic:loc:6245","850003000","zuerich hb",""
"San Giuliano Piemonte","44.890495","8.760964","0","TI","","","urn:trainline:generic:loc:20419","830001941","s. giuliano piemonte",""
"Pradipozzo","45.78465","12.761869","0","","","","urn:trainline:generic:loc:66633","","",""
"Torrita di Siena","43.174156","11.78767","0","TI","","","urn:trainline:generic:loc:20984","830006854","torrita di siena",""
"Prato Borgonuovo","43.891464","11.075378","0","TI","","","urn:trainline:generic:loc:20977","830006426","prato borgonuovo",""
"Sarre","45.717953","7.2584505","0","TI","","","urn:trainline:generic:loc:20341","830000136","sarre",""
"Avigliano Lucania","40.714962","15.785163","0","TI,FAL","","","urn:trainline:generic:loc:20810","830011214","avigliano lucania",""
"Zagarolo","41.82184","12.826937","0","TI","","","urn:trainline:generic:loc:20490","830008652","zagarolo",""
"Avigliano Porta Potenza","40.729977","15.715198","0","FAL","","","urn:trainline:generic:loc:66454","","",""
"Catanzaro Città","38.913284","16.584227","0","TI","","","urn:trainline:generic:loc:21058","830054228","catanzaro citta'",""
"Valcorrente","37.55012","14.944786","0","FCE","","","urn:trainline:generic:loc:66695","","",""
"Ancona Stadio","43.566338","13.520671","0","TI","","","urn:trainline:generic:loc:23106","830007114","ancona stadio",""
"Pettenasco","45.820496","8.406832","0","TI","","","urn:trainline:generic:loc:19498","830000011","pettenasco",""
"Castelfranco Veneto","45.66634","11.934021","1","TI","","","urn:trainline:generic:loc:19403","830002537","castelfranco veneto",""
"Camposampiero","45.569225","11.928363","0","TI","","","urn:trainline:generic:loc:19339","830002525","camposampiero",""
"Este","45.220943","11.662943","0","TI","","","urn:trainline:generic:loc:20042","830002396","este",""
